farm_id,region,crop_type,soil_moisture_%,soil_pH,temperature_C,rainfall_mm,humidity_%,sunlight_hours,irrigation_type,fertilizer_type,pesticide_usage_ml,sowing_date,harvest_date,total_days,yield_kg_per_hectare,sensor_id,timestamp,latitude,longitude,NDVI_index,crop_disease_status,location,name
FARM0001,North India,Wheat,35.95,5.99,17.79,75.62,77.03,7.27,None,Organic,6.34,2024-01-08,2024-05-09,122,4408.07,SENS0001,2024-03-19,30.492804,77.321728,0.63,Mild,Chandigarh,Autumn Acres
FARM0002,South USA,Soybean,19.74,7.24,30.18,89.91,61.13,5.67,Sprinkler,Inorganic,9.6,2024-02-04,2024-05-26,112,5389.98,SENS0002,2024-04-21,32.860297,-94.055091,0.58,None,Arkansas,Autumn Farm
FARM0003,South USA,Wheat,29.32,7.16,27.37,265.43,68.87,8.23,Drip,Mixed,15.26,2024-02-03,2024-06-26,144,2931.16,SENS0003,2024-02-28,31.009527,-91.053578,0.8,Mild,Louisiana,Autumn Farms
FARM0004,Central USA,Maize,17.33,6.03,33.73,212.01,70.46,5.03,Sprinkler,Organic,25.8,2024-02-21,2024-07-04,134,4227.8,SENS0004,2024-05-14,44.231602,-95.40851,0.44,None,Minnesota,Autumn Field
FARM0005,Central USA,Cotton,19.37,5.92,33.86,269.09,55.73,7.93,None,Mixed,25.65,2024-02-05,2024-05-20,105,4979.96,SENS0005,2024-04-13,44.545954,-118.820344,0.84,Severe,Oregon,Autumn Fields
FARM0006,Central USA,Rice,44.91,5.78,24.87,238.95,83.06,4.92,Sprinkler,Mixed,24,2024-01-13,2024-05-06,114,4383.55,SENS0006,2024-03-12,36.200458,-112.768556,0.82,None,Oregon,Autumn Grove
FARM0007,North India,Soybean,36.28,7.04,21.8,123.38,47.91,4.02,Manual,Mixed,39.29,2024-03-04,2024-07-27,145,4501.2,SENS0007,2024-07-11,29.699955,77.887356,0.76,None,Dehradun,Autumn Hollow
FARM0008,East Africa,Maize,27.1,5.72,22.26,296.33,80.34,5.44,Sprinkler,Mixed,47.61,2024-01-24,2024-05-24,121,5264.09,SENS0008,2024-04-30,-0.312688,35.212741,0.7,Mild,Kenya,Autumn Meadow
FARM0009,Central USA,Soybean,40.54,6.35,19.24,184.82,76.5,5.21,Manual,Inorganic,49.78,2024-03-12,2024-07-08,118,5598.46,SENS0009,2024-05-08,40.007175,-118.993378,0.5,Mild,Oregon,Autumn Ranch
FARM0010,East Africa,Rice,10.25,6.92,16.18,66.85,41.57,5.98,Sprinkler,Inorganic,35.1,2024-01-18,2024-04-25,98,4893.41,SENS0010,2024-03-31,-3.403335,36.272046,0.58,Severe,Tanzania,Autumn Ridge
FARM0011,South India,Wheat,13.39,6.36,23.47,166.76,76.45,8.04,Drip,Organic,23.12,2024-02-26,2024-07-20,145,2437.08,SENS0011,2024-04-15,13.347731,78.332307,0.55,Moderate,Bangalore,Birch Acres
FARM0012,South USA,Rice,40.61,5.65,31.16,263.99,44.9,7.91,Drip,Organic,46.69,2024-01-06,2024-05-01,116,3942.56,SENS0012,2024-02-02,32.8318,-92.667568,0.4,None,Louisiana,Birch Farm
FARM0013,South USA,Maize,42.43,7.07,20.7,224.15,76.53,8.7,None,Organic,13.55,2024-01-02,2024-05-08,127,4942.95,SENS0013,2024-01-17,34.980051,-95.865343,0.65,Mild,Oklahoma,Birch Farms
FARM0014,North India,Soybean,12.8,5.87,26.9,218.8,51.76,4.72,Sprinkler,Mixed,31.75,2024-03-03,2024-06-27,116,4629.49,SENS0014,2024-05-14,29.22563,81.414586,0.42,Moderate,Lucknow,Birch Field
FARM0015,South India,Maize,23.85,6.84,21,129.04,77.59,4.44,None,Mixed,49.93,2024-01-03,2024-05-06,124,2852.62,SENS0015,2024-02-05,12.355149,79.269315,0.34,Mild,Bangalore,Birch Fields
FARM0016,Central USA,Maize,15.52,7.17,29.07,202.92,89.36,7.92,Drip,Mixed,41.77,2024-02-22,2024-05-28,96,5755.72,SENS0016,2024-03-10,45.483349,-94.112012,0.75,Mild,Minnesota,Birch Grove
FARM0017,Central USA,Maize,31.17,6.94,19.07,208.56,53.2,6.93,Drip,Organic,33.54,2024-02-02,2024-05-02,90,3334.23,SENS0017,2024-02-18,44.8224,-105.41256,0.74,Severe,Minnesota,Birch Hollow
FARM0018,East Africa,Wheat,13.92,7.39,28.82,87.26,41.8,6.22,Sprinkler,Inorganic,10.74,2024-02-12,2024-07-08,147,5732.35,SENS0018,2024-02-22,-2.292487,35.720914,0.45,None,Kenya,Birch Meadow
FARM0019,Central USA,Soybean,40.94,6.31,27.41,88.64,86.49,9.19,Sprinkler,Inorganic,6.12,2024-03-11,2024-07-29,140,5723.26,SENS0019,2024-05-13,44.93006,-93.310075,0.36,None,Minnesota,Birch Ranch
FARM0020,South USA,Rice,16.99,7.34,21.99,255.13,83.57,5.34,Sprinkler,Inorganic,19.77,2024-01-25,2024-05-11,107,3404.58,SENS0020,2024-03-30,34.192463,-92.340349,0.62,None,Arkansas,Birch Ridge
FARM0021,North India,Maize,16.25,7.43,20.31,77.1,61.73,8.37,Manual,Inorganic,32.28,2024-03-04,2024-06-26,114,5598.02,SENS0021,2024-03-28,28.515582,78.002462,0.3,Mild,Delhi,Cedar Acres
FARM0022,Central USA,Cotton,12.45,6.83,21.6,128.48,82.4,8.32,Manual,Mixed,18.92,2024-02-11,2024-06-05,115,4788.83,SENS0022,2024-04-21,46.97527,-97.733804,0.86,Mild,Minnesota,Cedar Farm
FARM0023,East Africa,Soybean,20.53,6.6,15.01,121.73,61.49,7.48,Manual,Inorganic,24.88,2024-03-07,2024-07-07,122,3892.74,SENS0023,2024-06-30,1.035867,36.292994,0.7,Moderate,Kenya,Cedar Farms
FARM0024,East Africa,Soybean,21.73,7.14,30.02,218.2,51.23,5.19,Drip,Organic,16.02,2024-02-20,2024-07-13,144,5073.96,SENS0024,2024-06-15,-1.833547,37.873996,0.42,Severe,Kenya,Cedar Field
FARM0025,South USA,Cotton,18.54,6.81,15.11,237.74,78.5,4.64,None,Organic,12.91,2024-03-17,2024-07-14,119,2200.87,SENS0025,2024-04-17,31.181626,-96.756835,0.38,Severe,Texas,Cedar Fields
FARM0026,East Africa,Soybean,30.84,7.4,32.83,203.16,75.96,7.03,None,Organic,38.46,2024-02-15,2024-05-31,106,5007.11,SENS0026,2024-05-06,-1.485018,37.15799,0.59,Mild,Kenya,Cedar Grove
FARM0027,Central USA,Cotton,12.71,6.07,20.43,129.93,67.01,4.83,Sprinkler,Inorganic,36.23,2024-03-07,2024-06-09,94,3659.47,SENS0027,2024-04-18,36.46479,-95.871354,0.42,Severe,Oklahoma,Cedar Hollow
FARM0028,South USA,Soybean,43.11,5.54,32.61,193.92,63.85,9.66,Manual,Inorganic,43.41,2024-02-18,2024-07-04,137,4938.54,SENS0028,2024-04-14,31.786522,-89.172565,0.59,Severe,Mississippi,Cedar Meadow
FARM0029,Central USA,Cotton,35.35,7.18,33.39,295.18,66.71,9.44,Drip,Organic,33.92,2024-01-28,2024-05-26,119,2726.92,SENS0029,2024-03-01,42.269183,-109.620465,0.5,Severe,Oregon,Cedar Ranch
FARM0030,Central USA,Cotton,18.83,5.66,15.39,184.85,90,6.1,Drip,Mixed,6.81,2024-01-08,2024-04-19,102,5356.92,SENS0030,2024-03-27,44.331237,-98.422092,0.7,Mild,Minnesota,Cedar Ridge
FARM0031,South USA,Maize,36.84,5.84,27.14,236.98,45.73,8.92,Manual,Organic,31.04,2024-02-19,2024-07-01,133,5632.1,SENS0031,2024-05-25,32.48429,-93.572311,0.35,Mild,Louisiana,Delta Acres
FARM0032,North India,Maize,39.76,6.7,17.42,295.96,79.13,6.08,None,Mixed,21.68,2024-03-21,2024-07-10,111,2050.61,SENS0032,2024-05-13,28.588618,75.948257,0.88,Severe,Delhi,Delta Farm
FARM0033,South India,Cotton,16.16,6.54,28.01,203.98,85.98,8.65,None,Inorganic,42.16,2024-03-09,2024-06-27,110,5406.85,SENS0033,2024-06-23,11.927186,76.309792,0.57,Severe,Bangalore,Delta Farms
FARM0034,East Africa,Soybean,33.39,6.17,24.89,131.25,64.38,6.13,Manual,Inorganic,17.58,2024-03-23,2024-08-16,146,3105.07,SENS0034,2024-03-25,-4.410741,35.394213,0.44,Severe,Tanzania,Delta Field
FARM0035,South USA,Soybean,36.54,6.88,27.92,172.71,79.65,4.56,Sprinkler,Inorganic,36.13,2024-02-22,2024-06-28,127,3476.08,SENS0035,2024-05-20,32.883831,-91.198026,0.5,Severe,Mississippi,Delta Fields
FARM0036,Central USA,Maize,18.8,5.74,18.85,79.89,66.79,8.57,Sprinkler,Organic,14.74,2024-02-09,2024-06-24,136,4358.35,SENS0036,2024-06-22,47.556963,-117.984557,0.8,Moderate,Oregon,Delta Grove
FARM0037,South India,Maize,16.28,5.53,25.68,118.58,88.71,7.32,Sprinkler,Mixed,44.08,2024-02-04,2024-06-28,145,2049.06,SENS0037,2024-04-16,14.538262,78.443204,0.41,None,Bangalore,Delta Hollow
FARM0038,Central USA,Cotton,13.99,5.63,24.83,194.26,74.32,4.91,Manual,Organic,49.73,2024-01-18,2024-06-04,138,3664.7,SENS0038,2024-03-15,43.80171,-96.234432,0.85,Moderate,Minnesota,Delta Meadow
FARM0039,East Africa,Cotton,20.69,6.74,27.19,235.02,87.38,5.25,Sprinkler,Inorganic,34.72,2024-01-08,2024-04-18,101,4207.97,SENS0039,2024-01-28,1.719265,36.434557,0.66,Moderate,Kenya,Delta Ranch
FARM0040,North India,Rice,20.08,6.07,32.19,67.79,51.67,5.59,Sprinkler,Inorganic,10.16,2024-01-21,2024-04-29,99,5633.65,SENS0040,2024-02-08,29.574182,80.6948,0.48,Moderate,Lucknow,Delta Ridge
FARM0041,South USA,Wheat,26.4,6.11,23.05,118.06,67,6.63,Drip,Inorganic,38.05,2024-03-09,2024-06-08,91,2365.31,SENS0041,2024-06-03,31.586466,-95.437739,0.87,Moderate,Louisiana,Evergreen Acres
FARM0042,East Africa,Wheat,36.71,5.85,25.38,160.56,53.91,9.98,None,Mixed,41.64,2024-01-16,2024-05-07,112,3633.39,SENS0042,2024-02-26,-4.833245,37.65068,0.5,Severe,Tanzania,Evergreen Farm
FARM0043,Central USA,Cotton,38.47,6.6,24.1,128.63,56.16,9.82,None,Mixed,42.12,2024-01-22,2024-06-15,145,4170.37,SENS0043,2024-05-06,35.886347,-110.509426,0.67,Severe,Texas,Evergreen Farms
FARM0044,South USA,Wheat,17.12,6.6,33.55,159.53,74.91,4.73,Sprinkler,Mixed,12.13,2024-03-01,2024-07-04,125,3631.96,SENS0044,2024-03-29,33.9172,-88.976286,0.58,None,Mississippi,Evergreen Field
FARM0045,South India,Cotton,42.64,6.08,29.11,153.87,64.12,6.83,None,Mixed,11.51,2024-01-20,2024-05-21,122,4985.17,SENS0045,2024-02-06,13.558203,79.493759,0.77,Severe,Bangalore,Evergreen Fields
FARM0046,Central USA,Soybean,19.35,5.51,29.52,259.37,69,7.96,Sprinkler,Inorganic,29.24,2024-02-11,2024-06-15,125,5051.49,SENS0046,2024-03-30,39.515082,-97.121108,0.41,Mild,Oklahoma,Evergreen Grove
FARM0047,East Africa,Cotton,18.17,7.05,15.87,236.18,75.26,8.87,None,Mixed,40.66,2024-03-05,2024-07-04,121,5859.3,SENS0047,2024-03-21,0.788049,36.750119,0.82,Severe,Kenya,Evergreen Hollow
FARM0048,North India,Soybean,41.87,5.53,17.88,267.73,88.5,4.45,Manual,Inorganic,33.05,2024-02-21,2024-05-26,95,5407.06,SENS0048,2024-05-17,28.327574,80.428618,0.49,Severe,Lucknow,Evergreen Meadow
FARM0049,East Africa,Wheat,31.61,5.97,28.69,121.84,51.37,4.54,Drip,Mixed,36.68,2024-01-15,2024-04-24,100,4776,SENS0049,2024-01-18,-1.42246,35.668988,0.48,Moderate,Kenya,Evergreen Ranch
FARM0050,South USA,Rice,18.55,6.32,28.64,95.01,48.75,7.66,None,Mixed,35.74,2024-02-19,2024-05-28,99,2928.75,SENS0050,2024-05-10,31.186441,-91.438194,0.31,Severe,Louisiana,Evergreen Ridge
FARM0051,Central USA,Soybean,15.53,6.38,21.91,196.89,71.95,6.55,Manual,Inorganic,43.04,2024-01-13,2024-06-05,144,3932.83,SENS0051,2024-03-13,36.103078,-102.3136,0.48,Moderate,Oklahoma,Fern Acres
FARM0052,North India,Cotton,19.61,6.63,28.72,236.17,42.45,7.64,None,Inorganic,39.91,2024-01-20,2024-06-09,141,3409.28,SENS0052,2024-03-08,30.251896,81.415954,0.73,Mild,Dehradun,Fern Farm
FARM0053,North India,Wheat,20.81,6.38,26.59,233.09,44.51,5.77,None,Organic,14.04,2024-03-12,2024-07-13,123,4007.18,SENS0053,2024-04-15,31.689106,79.679831,0.79,Severe,Dehradun,Fern Farms
FARM0054,Central USA,Maize,38.15,6.44,16.51,238.54,51.28,8.06,None,Mixed,21.46,2024-02-01,2024-05-17,106,4146.29,SENS0054,2024-03-30,35.869056,-104.375462,0.46,Severe,Oklahoma,Fern Field
FARM0055,Central USA,Wheat,33.62,6.44,27.39,285.79,56.4,7.66,Drip,Mixed,42.07,2024-03-10,2024-07-19,131,3633.18,SENS0055,2024-04-14,41.52129,-118.096683,0.9,None,Oregon,Fern Fields
FARM0056,North India,Rice,41.05,5.77,24.07,217.62,77.16,9.68,None,Mixed,38.4,2024-01-14,2024-05-24,131,2396.09,SENS0056,2024-05-18,32.208879,81.809762,0.47,Moderate,Dehradun,Fern Grove
FARM0057,South India,Cotton,25.56,5.97,22.25,295.23,58.37,9.41,Manual,Organic,22.92,2024-01-04,2024-06-02,150,5392.13,SENS0057,2024-04-29,14.592369,77.759396,0.68,None,Bangalore,Fern Hollow
FARM0058,North India,Maize,18.52,5.75,26.29,67.15,78.26,5.24,Sprinkler,Organic,19.79,2024-01-26,2024-06-21,147,4383.93,SENS0058,2024-04-05,32.392766,77.226083,0.38,Moderate,Chandigarh,Fern Meadow
FARM0059,South India,Wheat,33.14,5.55,15.3,247.5,51.9,5.94,Sprinkler,Inorganic,7.36,2024-03-14,2024-07-15,123,2454.6,SENS0059,2024-03-22,12.424736,78.245435,0.61,None,Bangalore,Fern Ranch
FARM0060,South USA,Soybean,17.75,6.73,29.54,277.19,72.95,5.81,Drip,Organic,49.94,2024-02-14,2024-06-26,133,2431.85,SENS0060,2024-06-06,32.115097,-95.13205,0.66,None,Louisiana,Fern Ridge
FARM0061,South India,Maize,31.85,6.67,29.24,145.23,69.87,5.77,None,Organic,40.69,2024-01-28,2024-06-07,131,4603.67,SENS0061,2024-03-23,13.694452,77.431034,0.55,Severe,Bangalore,Golden Acres
FARM0062,South USA,Cotton,35.54,6.13,21.25,113.72,87.68,8.12,None,Organic,9.11,2024-01-03,2024-04-29,117,2386.26,SENS0062,2024-04-06,33.885464,-93.463468,0.34,Moderate,Arkansas,Golden Farm
FARM0063,North India,Cotton,22.38,6.83,30.01,267.02,76.05,9.81,Manual,Inorganic,9.66,2024-03-07,2024-06-14,99,4626.95,SENS0063,2024-04-04,30.085591,81.547399,0.63,None,Lucknow,Golden Farms
FARM0064,Central USA,Soybean,17.92,6.36,26.22,241.86,71.09,8.05,Drip,Mixed,46.81,2024-03-09,2024-06-08,91,2721.66,SENS0064,2024-06-06,35.533423,-100.540342,0.51,Mild,Oklahoma,Golden Field
FARM0065,South India,Soybean,33.01,5.64,29.82,292.95,44.59,7.18,None,Inorganic,25.41,2024-01-12,2024-04-30,109,4886.38,SENS0065,2024-04-20,15.510232,77.401266,0.83,Mild,Hyderabad,Golden Fields
FARM0066,South India,Soybean,11.74,5.66,23.86,156,70.35,6.49,Sprinkler,Mixed,10.12,2024-02-04,2024-05-22,108,4712.87,SENS0066,2024-04-19,11.565393,78.829134,0.33,Severe,Bangalore,Golden Grove
FARM0067,East Africa,Wheat,10.27,6.1,19.22,84.31,52.78,5.97,Drip,Inorganic,38.62,2024-01-05,2024-04-28,114,4130.33,SENS0067,2024-02-03,-0.172909,36.026876,0.78,None,Kenya,Golden Hollow
FARM0068,South USA,Wheat,25.27,6.42,16.56,128.27,61.46,6.43,None,Inorganic,10.18,2024-01-11,2024-04-20,100,5205.29,SENS0068,2024-03-30,31.644306,-91.748203,0.52,Severe,Louisiana,Golden Meadow
FARM0069,North India,Rice,25.25,6.3,16.57,267.63,77.29,5.33,Sprinkler,Organic,27.97,2024-01-17,2024-05-18,122,2775.61,SENS0069,2024-04-25,30.384074,76.964361,0.79,Mild,Chandigarh,Golden Ranch
FARM0070,South India,Wheat,15.13,5.89,27.05,240.05,72.78,5.06,None,Inorganic,38.95,2024-03-15,2024-07-26,133,5696.62,SENS0070,2024-06-05,13.795495,76.479907,0.39,None,Bangalore,Golden Ridge
FARM0071,South USA,Cotton,32.1,7.09,26.83,137.99,43.71,6.77,Drip,Organic,21.59,2024-02-03,2024-06-13,131,5457,SENS0071,2024-02-26,34.367153,-92.041042,0.58,None,Arkansas,Harbor Acres
FARM0072,South USA,Soybean,32.81,6.14,24.51,87.72,43.09,4.62,Manual,Mixed,8.79,2024-03-06,2024-06-06,92,2990.97,SENS0072,2024-05-01,34.273374,-92.841421,0.67,Moderate,Arkansas,Harbor Farm
FARM0073,Central USA,Maize,23.56,7.05,28.58,63.09,71.54,6.01,Manual,Organic,30.11,2024-02-10,2024-05-26,106,4894.93,SENS0073,2024-05-04,37.407002,-100.624237,0.39,None,Oklahoma,Harbor Farms
FARM0074,East Africa,Rice,42.09,6.12,28.12,215.53,46.45,8.25,Drip,Inorganic,30.15,2024-03-26,2024-07-15,111,5252.74,SENS0074,2024-06-19,1.811275,35.549768,0.9,None,Kenya,Harbor Field
FARM0075,South USA,Soybean,22.66,6.23,18.61,103.55,87.38,6.92,Sprinkler,Organic,11.97,2024-02-28,2024-07-17,140,2404.56,SENS0075,2024-07-15,33.558616,-94.691151,0.32,Moderate,Arkansas,Harbor Fields
FARM0076,East Africa,Rice,30.9,5.81,18.62,223.21,71.24,9.42,None,Organic,23.49,2024-03-24,2024-07-07,105,5878.35,SENS0076,2024-06-10,-1.926005,36.669629,0.57,Mild,Kenya,Harbor Grove
FARM0077,Central USA,Cotton,41.64,5.89,28.57,192.6,62.03,8.62,None,Mixed,28.74,2024-01-27,2024-05-08,102,5205.04,SENS0077,2024-02-13,37.260159,-104.17858,0.59,Moderate,Oklahoma,Harbor Hollow
FARM0078,East Africa,Wheat,34.9,6.53,17.49,70.97,48.02,6.7,Sprinkler,Inorganic,9.13,2024-01-27,2024-05-24,118,5538.52,SENS0078,2024-01-30,-1.623055,37.426488,0.52,Severe,Kenya,Harbor Meadow
FARM0079,North India,Maize,17.86,6.14,16.98,228.68,56.76,4.88,Drip,Inorganic,46.28,2024-02-23,2024-07-15,143,2555.17,SENS0079,2024-06-22,32.276874,77.980425,0.35,Moderate,Chandigarh,Harbor Ranch
FARM0080,South India,Rice,29.21,6.95,25.56,77.8,54.41,5.81,Drip,Organic,23.89,2024-03-15,2024-06-17,94,2443.43,SENS0080,2024-05-17,12.686828,77.233014,0.61,Mild,Bangalore,Harbor Ridge
FARM0081,South India,Maize,25.02,6.73,19.81,154.14,73.22,4.51,Manual,Organic,47.9,2024-03-17,2024-08-04,140,5953.33,SENS0081,2024-03-22,13.792077,78.664916,0.68,Moderate,Bangalore,Ivy Acres
FARM0082,Central USA,Wheat,22.5,5.64,19.82,214.28,45.18,7.49,Manual,Organic,7,2024-03-11,2024-07-31,142,4571.18,SENS0082,2024-07-07,36.247143,-108.410003,0.41,Mild,Texas,Ivy Farm
FARM0083,North India,Cotton,11.29,5.9,30.82,271.45,55.78,5.86,None,Mixed,26.3,2024-01-25,2024-06-04,131,2764.41,SENS0083,2024-04-25,31.368235,80.8842,0.69,Moderate,Dehradun,Ivy Farms
FARM0084,North India,Maize,25.29,6.3,23.79,289.12,56.95,5.12,None,Inorganic,46.59,2024-03-09,2024-07-28,141,2330.45,SENS0084,2024-06-25,32.338731,76.479541,0.79,Moderate,Chandigarh,Ivy Field
FARM0085,Central USA,Wheat,12.8,6.82,21.13,200.66,61.31,8.14,Manual,Inorganic,6.91,2024-02-20,2024-06-16,117,3098.22,SENS0085,2024-05-31,36.764585,-108.615605,0.68,Moderate,Oklahoma,Ivy Fields
FARM0086,East Africa,Rice,43.35,5.79,27.15,245.33,41.74,4.4,Manual,Inorganic,22.23,2024-03-02,2024-07-08,128,2613.75,SENS0086,2024-06-25,-1.065674,37.224825,0.76,Mild,Kenya,Ivy Grove
FARM0087,East Africa,Maize,23.93,6.8,19.99,78.36,76.78,6.99,None,Mixed,10.3,2024-02-23,2024-06-20,118,2858.28,SENS0087,2024-05-11,-0.252959,35.664389,0.59,None,Kenya,Ivy Hollow
FARM0088,South India,Wheat,25.82,7.3,23.9,71.95,74.1,9.07,Manual,Mixed,20.63,2024-01-18,2024-05-21,124,3161.45,SENS0088,2024-02-25,11.073814,79.48427,0.86,Mild,Bangalore,Ivy Meadow
FARM0089,Central USA,Soybean,17.85,7.47,30.84,109.18,64.7,6.17,Manual,Inorganic,41.16,2024-03-05,2024-07-12,129,5536.99,SENS0089,2024-03-21,45.916923,-103.418916,0.73,Severe,Minnesota,Ivy Ranch
FARM0090,South USA,Soybean,12.58,7.44,27.85,162.49,74.01,6.07,Sprinkler,Organic,24.47,2024-01-27,2024-05-03,97,4072.41,SENS0090,2024-03-05,33.49708,-92.227539,0.73,Moderate,Arkansas,Ivy Ridge
FARM0091,East Africa,Maize,39.61,6,27.7,187.71,46.26,5.82,Drip,Mixed,33.84,2024-03-19,2024-06-26,99,2684.8,SENS0091,2024-06-06,1.873999,36.700296,0.81,None,Kenya,Juniper Acres
FARM0092,North India,Wheat,11.59,6.78,26.54,212.78,78.35,6.5,Drip,Inorganic,45,2024-03-10,2024-07-19,131,5826.6,SENS0092,2024-07-11,30.460579,79.396821,0.54,Severe,Dehradun,Juniper Farm
FARM0093,North India,Wheat,15.53,6.33,24.29,135.05,47.18,9.17,Manual,Mixed,49.46,2024-02-13,2024-05-21,98,5042.66,SENS0093,2024-04-18,29.404755,78.608925,0.58,Moderate,Dehradun,Juniper Farms
FARM0094,South USA,Rice,14.93,5.6,33.91,266.04,60.91,9.78,Sprinkler,Inorganic,47.02,2024-03-11,2024-06-21,102,5052.49,SENS0094,2024-05-13,31.515791,-88.716229,0.83,Severe,Mississippi,Juniper Field
FARM0095,North India,Wheat,43.08,6.51,34.33,103.79,57.64,4.3,None,Mixed,44.71,2024-03-22,2024-07-20,120,3142.99,SENS0095,2024-03-23,30.745982,80.797034,0.83,Moderate,Dehradun,Juniper Fields
FARM0096,South USA,Maize,11.58,5.6,26.24,140.63,54.43,6.32,None,Mixed,17.59,2024-03-22,2024-07-29,129,2475.24,SENS0096,2024-04-15,33.489119,-90.54904,0.5,Moderate,Mississippi,Juniper Grove
FARM0097,South India,Rice,31.09,6.3,15.81,59.73,75.68,8.82,None,Organic,32.28,2024-03-05,2024-06-23,110,5725.47,SENS0097,2024-04-14,11.016002,79.868641,0.74,Moderate,Bangalore,Juniper Hollow
FARM0098,East Africa,Maize,27.76,6.52,24.8,190.73,63.74,4.1,Manual,Mixed,9.93,2024-02-19,2024-06-07,109,5187.02,SENS0098,2024-05-21,1.60577,37.232664,0.66,Moderate,Kenya,Juniper Meadow
FARM0099,East Africa,Soybean,17.96,5.6,24.61,181.06,76.06,8.65,None,Organic,41.97,2024-01-02,2024-05-07,126,5792.82,SENS0099,2024-01-16,-3.620941,35.066027,0.55,Severe,Tanzania,Juniper Ranch
FARM0100,South India,Cotton,27.56,6.72,24.43,262.09,76.37,8.23,Sprinkler,Mixed,19.63,2024-03-16,2024-07-17,123,3507.3,SENS0100,2024-07-16,13.904361,79.115479,0.51,Moderate,Bangalore,Juniper Ridge
FARM0101,Central USA,Soybean,26.95,7.41,20.58,124.62,87.07,9.89,Manual,Mixed,14.33,2024-03-16,2024-07-04,110,3919.21,SENS0101,2024-05-26,42.566277,-116.995298,0.46,None,Oregon,Keystone Acres
FARM0102,East Africa,Soybean,23.29,7.46,31.37,288.65,80.23,5.74,Manual,Mixed,8.56,2024-02-21,2024-06-06,106,4989.35,SENS0102,2024-03-19,-3.74284,35.879295,0.86,Moderate,Tanzania,Keystone Farm
FARM0103,South India,Wheat,31.55,6.67,19.85,217.46,66.55,7.83,Drip,Organic,23.6,2024-03-16,2024-06-20,96,4724.77,SENS0103,2024-04-02,13.622636,78.956803,0.86,Severe,Bangalore,Keystone Farms
FARM0104,South USA,Cotton,32.77,7.01,20.74,121.35,42.96,8.61,Sprinkler,Mixed,38.24,2024-01-06,2024-05-01,116,5528.98,SENS0104,2024-01-28,31.563988,-88.358211,0.8,Severe,Mississippi,Keystone Field
FARM0105,South India,Maize,40.69,5.52,26.36,76.83,89.15,5.71,None,Organic,43.3,2024-02-09,2024-05-21,102,5235.26,SENS0105,2024-03-22,13.998623,79.469095,0.45,Mild,Bangalore,Keystone Fields
FARM0106,North India,Maize,37.68,6.64,30.15,93.87,82.81,9.38,None,Mixed,19.76,2024-02-22,2024-05-28,96,2739.12,SENS0106,2024-03-10,30.816116,80.851487,0.3,Severe,Dehradun,Keystone Grove
FARM0107,South India,Cotton,36.38,7.41,21.04,230.72,40.57,7.92,Sprinkler,Organic,35.05,2024-02-10,2024-05-20,100,3621.67,SENS0107,2024-04-14,14.755245,79.623735,0.76,None,Bangalore,Keystone Hollow
FARM0108,Central USA,Maize,31.51,5.94,17.67,88.3,77.39,7.63,None,Mixed,29.72,2024-02-25,2024-06-28,124,5207.98,SENS0108,2024-06-09,47.359987,-103.706206,0.75,None,Minnesota,Keystone Meadow
FARM0109,East Africa,Cotton,28.49,6.22,33.34,78.05,81.44,9.42,Sprinkler,Mixed,29.15,2024-01-11,2024-06-03,144,4081.37,SENS0109,2024-02-09,-1.848583,37.210502,0.59,Severe,Kenya,Keystone Ranch
FARM0110,North India,Cotton,14.62,6.33,26.28,189.7,73.64,5.85,Drip,Inorganic,16.45,2024-01-24,2024-05-06,103,4313.25,SENS0110,2024-01-29,30.108787,76.661341,0.62,None,Chandigarh,Keystone Ridge
FARM0111,North India,Cotton,11.11,6.32,30.38,241.46,88.92,7.88,None,Inorganic,49.68,2024-02-15,2024-07-09,145,5668.46,SENS0111,2024-05-21,30.592754,81.046105,0.7,Mild,Dehradun,Lakeview Acres
FARM0112,Central USA,Wheat,16.25,6.57,25.58,231.96,51.13,4.02,Drip,Inorganic,25.84,2024-03-18,2024-07-13,117,4127.73,SENS0112,2024-07-01,44.151383,-108.701338,0.39,Mild,Oregon,Lakeview Farm
FARM0113,North India,Wheat,38.33,6.34,30.32,270.94,40.78,5.24,Drip,Mixed,6.51,2024-03-22,2024-08-04,135,5488.85,SENS0113,2024-05-23,29.614935,78.388463,0.44,Mild,Dehradun,Lakeview Farms
FARM0114,North India,Rice,27.64,6.08,31.32,232.88,55.95,7.59,Manual,Organic,18.58,2024-01-22,2024-05-24,123,2884.17,SENS0114,2024-02-29,28.046818,80.824896,0.66,Mild,Lucknow,Lakeview Field
FARM0115,South USA,Soybean,27.35,7.44,33.83,217.84,79.29,5.91,None,Inorganic,11.71,2024-02-06,2024-06-23,138,4151.71,SENS0115,2024-04-07,31.15018,-91.595339,0.72,Severe,Louisiana,Lakeview Fields
FARM0116,North India,Soybean,24.44,6.33,25.6,147.1,52.75,5.98,Drip,Inorganic,43.12,2024-01-18,2024-06-02,136,5317.63,SENS0116,2024-01-31,30.166514,77.28147,0.66,None,Chandigarh,Lakeview Grove
FARM0117,South India,Soybean,35.35,6.62,24.59,267.37,56.65,9.74,Drip,Organic,47.17,2024-03-04,2024-07-19,137,5998.29,SENS0117,2024-07-04,11.772339,78.765641,0.72,Severe,Bangalore,Lakeview Hollow
FARM0118,South India,Soybean,21.26,6.07,24.33,212.18,55.42,6.16,None,Inorganic,9.44,2024-03-16,2024-08-01,138,5358.92,SENS0118,2024-05-07,13.435437,77.535024,0.64,Mild,Bangalore,Lakeview Meadow
FARM0119,South India,Wheat,19.13,7.37,26.58,154.39,47.62,5.98,None,Mixed,42.5,2024-02-18,2024-06-28,131,5773.86,SENS0119,2024-05-14,11.591153,78.662862,0.88,Severe,Bangalore,Lakeview Ranch
FARM0120,South USA,Rice,35.65,6.2,17.8,186.64,49.2,9.34,Drip,Mixed,6.52,2024-01-27,2024-06-07,132,2194.06,SENS0120,2024-01-28,34.134269,-94.602587,0.44,Mild,Arkansas,Lakeview Ridge
FARM0121,North India,Rice,27.7,6.25,27.36,216.69,70.83,6.9,None,Organic,5.3,2024-03-14,2024-06-12,90,2066.9,SENS0121,2024-04-18,29.659261,81.292349,0.6,Severe,Lucknow,Maple Acres
FARM0122,South India,Wheat,42.13,6.55,19.82,204.95,52.62,6.13,None,Organic,21.79,2024-02-15,2024-06-20,126,2972.83,SENS0122,2024-05-14,12.434499,76.703166,0.81,None,Bangalore,Maple Farm
FARM0123,North India,Cotton,23.27,6.61,16.12,52.36,48.57,7,None,Mixed,40.3,2024-03-28,2024-07-02,96,5579.16,SENS0123,2024-04-02,30.814947,80.547535,0.72,Severe,Dehradun,Maple Farms
FARM0124,Central USA,Wheat,42.35,6.87,20.61,185.76,72.91,5.08,Manual,Organic,48.27,2024-03-05,2024-07-21,138,5282.76,SENS0124,2024-06-14,45.148911,-93.287889,0.64,Severe,Minnesota,Maple Field
FARM0125,East Africa,Maize,23.43,6.98,30.81,222.33,43.92,8.47,Manual,Organic,9.4,2024-01-27,2024-04-30,94,3362.37,SENS0125,2024-04-14,-3.484334,37.46607,0.76,None,Kenya,Maple Fields
FARM0126,Central USA,Cotton,27.17,6.21,33.82,157.96,73.98,7.96,Drip,Mixed,18.29,2024-01-23,2024-04-26,94,2328.15,SENS0126,2024-02-11,38.188496,-93.86732,0.39,Severe,Arkansas,Maple Grove
FARM0127,Central USA,Maize,13.73,5.51,21.17,139.98,53.49,4.8,Sprinkler,Inorganic,25.2,2024-03-17,2024-07-11,116,2413.17,SENS0127,2024-03-28,43.113143,-93.664128,0.66,Moderate,Minnesota,Maple Hollow
FARM0128,South USA,Wheat,20.21,6.28,16.69,275.28,85.26,9.87,Sprinkler,Mixed,22.13,2024-01-09,2024-04-27,109,3073.63,SENS0128,2024-01-27,34.080246,-93.301082,0.55,Severe,Arkansas,Maple Meadow
FARM0129,North India,Maize,18.81,5.99,27.5,198.45,49.78,4.64,Manual,Organic,47.7,2024-02-27,2024-07-05,129,3519.56,SENS0129,2024-05-21,30.497427,79.791145,0.79,Mild,Dehradun,Maple Ranch
FARM0130,Central USA,Maize,31.11,6.89,24.58,94.41,59.91,5.91,None,Mixed,40.19,2024-02-13,2024-05-30,107,5265.98,SENS0130,2024-04-03,37.296545,-98.058759,0.42,Mild,Oklahoma,Maple Ridge
FARM0131,East Africa,Wheat,43.36,6.42,29.17,159.61,54.57,8.16,None,Mixed,27.47,2024-03-10,2024-06-23,105,3010.73,SENS0131,2024-03-29,-4.417873,37.283872,0.34,Severe,Tanzania,Northwind Acres
FARM0132,East Africa,Cotton,28.7,7.35,32.39,154.58,41.84,9.81,Drip,Organic,39.6,2024-03-22,2024-07-12,112,2665.35,SENS0132,2024-06-08,-0.734573,35.876974,0.71,Severe,Kenya,Northwind Farm
FARM0133,Central USA,Cotton,13.71,5.7,19.44,236.71,67.9,8.13,Sprinkler,Inorganic,21.84,2024-02-25,2024-07-07,133,4354.36,SENS0133,2024-07-02,36.41909,-103.588329,0.59,Moderate,Oklahoma,Northwind Farms
FARM0134,South USA,Wheat,14.06,7.38,17.83,127.97,62.77,5.24,None,Inorganic,26.43,2024-02-24,2024-07-07,134,3809.79,SENS0134,2024-03-12,32.866042,-93.200263,0.37,Moderate,Louisiana,Northwind Field
FARM0135,North India,Rice,42.55,6.98,25.32,187.98,56.55,6.56,None,Organic,40.9,2024-03-06,2024-06-15,101,4561.92,SENS0135,2024-04-30,31.238031,79.763331,0.83,Severe,Dehradun,Northwind Fields
FARM0136,East Africa,Cotton,23.61,6.91,19.12,238.08,80.44,4.38,Drip,Mixed,13.41,2024-02-07,2024-06-05,119,2455.82,SENS0136,2024-05-02,-2.970829,36.113888,0.68,Severe,Kenya,Northwind Grove
FARM0137,East Africa,Cotton,30.55,6.2,31.91,204.34,80.69,8.24,Manual,Mixed,31.56,2024-03-05,2024-06-23,110,2471.45,SENS0137,2024-04-13,-0.033627,37.582191,0.38,Severe,Kenya,Northwind Hollow
FARM0138,South USA,Soybean,14.83,6.27,18.72,208.88,74.67,7.87,Sprinkler,Mixed,12.51,2024-02-05,2024-05-16,101,3258.32,SENS0138,2024-04-02,34.900245,-88.248141,0.87,Severe,Mississippi,Northwind Meadow
FARM0139,South India,Rice,38.53,7.43,25.11,173.74,74.23,6.49,None,Inorganic,12.53,2024-03-01,2024-07-19,140,5044.23,SENS0139,2024-05-14,12.850015,77.568076,0.47,Severe,Bangalore,Northwind Ranch
FARM0140,East Africa,Cotton,29.24,5.73,17.28,243.78,81.16,6.2,Drip,Mixed,24.86,2024-01-14,2024-04-19,96,4943.95,SENS0140,2024-04-06,-2.93099,37.85715,0.9,Severe,Kenya,Northwind Ridge
FARM0141,Central USA,Maize,40.18,5.67,32.31,79.35,80.59,5.26,Manual,Mixed,32.46,2024-02-06,2024-06-14,129,2556.94,SENS0141,2024-03-29,40.783015,-97.108011,0.64,Moderate,Oklahoma,Oak Acres
FARM0142,East Africa,Soybean,15.89,7.46,20.85,193.18,87.62,7.09,Drip,Organic,48.32,2024-02-02,2024-05-19,107,5468.19,SENS0142,2024-02-18,-0.364659,35.032129,0.39,Moderate,Kenya,Oak Farm
FARM0143,South India,Cotton,27.13,6.65,20.37,153.56,62.6,7.8,Drip,Inorganic,28.2,2024-02-23,2024-07-21,149,5509.27,SENS0143,2024-06-18,11.482845,77.503754,0.3,None,Bangalore,Oak Farms
FARM0144,South USA,Maize,39.75,7.09,22.95,292.03,81.24,6.97,Manual,Inorganic,20.2,2024-03-05,2024-07-09,126,5409.69,SENS0144,2024-06-13,33.932783,-92.661919,0.33,None,Arkansas,Oak Field
FARM0145,South USA,Wheat,14.35,7.22,23.83,50.17,87.9,5.21,Sprinkler,Mixed,18.58,2024-02-03,2024-06-13,131,3441.74,SENS0145,2024-02-24,31.153643,-91.436791,0.4,Severe,Louisiana,Oak Fields
FARM0146,Central USA,Rice,25.02,5.68,16.9,103.36,43.9,7.56,None,Organic,5.36,2024-02-27,2024-06-03,97,5952.62,SENS0146,2024-04-21,36.429173,-115.864923,0.44,None,Oregon,Oak Grove
FARM0147,North India,Wheat,20.97,7.26,17.74,243.37,77.66,4.8,Sprinkler,Organic,28.87,2024-01-20,2024-05-30,131,2656.47,SENS0147,2024-04-18,28.621908,75.796011,0.39,Severe,Delhi,Oak Hollow
FARM0148,East Africa,Cotton,40.1,5.67,17.01,238.11,69.48,6.3,None,Inorganic,40.6,2024-01-09,2024-05-19,131,2336.99,SENS0148,2024-03-21,-3.353933,37.930022,0.81,Moderate,Kenya,Oak Meadow
FARM0149,South India,Soybean,31.24,5.88,22.84,211.54,79.19,8.76,Sprinkler,Inorganic,22.36,2024-01-16,2024-05-25,130,4375.72,SENS0149,2024-01-19,13.643157,78.320734,0.38,Severe,Bangalore,Oak Ranch
FARM0150,Central USA,Soybean,33.9,7.03,34.09,242.59,40.83,4.41,Manual,Organic,6.79,2024-01-26,2024-05-20,115,4026.44,SENS0150,2024-04-15,43.668716,-104.850413,0.55,Severe,Oklahoma,Oak Ridge
FARM0151,North India,Soybean,28.82,5.81,16.67,69.76,86.05,9.85,Sprinkler,Mixed,19.7,2024-03-21,2024-08-06,138,5338.11,SENS0151,2024-04-06,29.428225,80.103913,0.87,Mild,Dehradun,Prairie Acres
FARM0152,North India,Rice,13.02,6.37,24.07,202.21,55.46,8.45,Sprinkler,Organic,5.57,2024-01-23,2024-04-22,90,2655.33,SENS0152,2024-03-07,31.522828,76.456913,0.73,Mild,Chandigarh,Prairie Farm
FARM0153,Central USA,Rice,36.24,7.25,29.66,79.51,84.99,6.01,None,Inorganic,28.57,2024-02-23,2024-06-28,126,4510.13,SENS0153,2024-04-26,42.409468,-96.325628,0.6,Mild,Minnesota,Prairie Farms
FARM0154,Central USA,Rice,18.93,5.71,26.48,230.69,51.42,7.05,Drip,Organic,16,2024-02-12,2024-06-05,114,5680.91,SENS0154,2024-03-05,44.035882,-114.639078,0.63,Severe,Oregon,Prairie Field
FARM0155,South India,Maize,18.69,7.33,21.4,256.5,68.58,4.72,Drip,Organic,15.04,2024-03-02,2024-06-25,115,2275.71,SENS0155,2024-04-30,13.952008,79.060572,0.49,None,Bangalore,Prairie Fields
FARM0156,East Africa,Cotton,10.28,5.9,26.28,125.98,71.14,6.78,None,Organic,37.96,2024-03-25,2024-08-12,140,2980.51,SENS0156,2024-03-26,-2.71916,36.716858,0.62,None,Kenya,Prairie Grove
FARM0157,Central USA,Wheat,36.56,6.25,29.76,126.88,50.26,9.9,None,Inorganic,48.25,2024-01-23,2024-05-09,107,2372.11,SENS0157,2024-02-21,38.847858,-101.522313,0.72,Moderate,Oklahoma,Prairie Hollow
FARM0158,South USA,Wheat,30.33,6.51,27.74,148.59,69.59,4.37,Sprinkler,Organic,18.13,2024-02-26,2024-06-20,115,4802.9,SENS0158,2024-05-30,32.169953,-93.226572,0.44,Mild,Louisiana,Prairie Meadow
FARM0159,South India,Soybean,13.81,5.71,23.99,128.51,46.04,6.15,Sprinkler,Inorganic,18.87,2024-02-28,2024-06-04,97,2361.68,SENS0159,2024-05-25,13.827974,76.971085,0.66,Mild,Bangalore,Prairie Ranch
FARM0160,Central USA,Rice,13.19,6,22.11,178.36,73.86,5.56,Sprinkler,Organic,47.84,2024-02-18,2024-07-04,137,4200.48,SENS0160,2024-03-13,45.303353,-100.239997,0.38,None,Minnesota,Prairie Ridge
FARM0161,North India,Rice,14.58,7.15,22.44,207.57,72.23,7.49,Manual,Organic,5.98,2024-01-07,2024-06-02,147,4583.95,SENS0161,2024-02-08,31.701512,76.631267,0.79,None,Chandigarh,Quail Acres
FARM0162,North India,Cotton,11.77,7.35,23.66,231.11,64.81,6.3,None,Organic,20.93,2024-01-09,2024-04-25,107,3784.05,SENS0162,2024-01-28,32.344476,79.60411,0.45,Moderate,Dehradun,Quail Farm
FARM0163,South USA,Cotton,40.9,6.46,16.75,145.75,60.96,7.86,Sprinkler,Mixed,49.73,2024-03-26,2024-06-25,91,5957.61,SENS0163,2024-06-25,31.935501,-90.68817,0.59,Moderate,Mississippi,Quail Farms
FARM0164,South USA,Maize,16.29,6.14,19.38,273.94,78.93,4.35,None,Mixed,21.08,2024-03-08,2024-06-16,100,2400.54,SENS0164,2024-05-31,33.338328,-88.049064,0.77,None,Mississippi,Quail Field
FARM0165,South India,Soybean,39.63,7.09,22.1,259.81,82.26,5.06,Manual,Mixed,36.39,2024-03-01,2024-07-14,135,4802.24,SENS0165,2024-04-06,14.541037,77.125729,0.89,Severe,Bangalore,Quail Fields
FARM0166,East Africa,Maize,16.14,5.58,16.12,200.42,41,6.87,Manual,Mixed,14.07,2024-01-11,2024-05-25,135,2709.84,SENS0166,2024-04-02,-3.483284,35.347447,0.72,Mild,Tanzania,Quail Grove
FARM0167,North India,Soybean,40.12,7.42,22.47,285.48,59.78,4.61,Manual,Inorganic,11.14,2024-01-24,2024-06-22,150,3747.47,SENS0167,2024-05-27,29.925244,76.144203,0.88,Moderate,Chandigarh,Quail Hollow
FARM0168,South India,Soybean,38.51,6.26,29.68,123.63,48.89,4.01,None,Mixed,6.46,2024-03-11,2024-08-06,148,5235.23,SENS0168,2024-05-06,14.846089,79.789362,0.6,Moderate,Hyderabad,Quail Meadow
FARM0169,North India,Rice,22.14,6.14,27.72,290.77,81.08,8.02,Manual,Inorganic,5.51,2024-01-08,2024-05-21,134,2271.18,SENS0169,2024-03-13,28.796014,81.781618,0.33,Severe,Lucknow,Quail Ranch
FARM0170,South USA,Rice,40.96,6.49,22.57,186.51,45.07,6.88,Sprinkler,Organic,25.31,2024-01-10,2024-04-10,91,3274.87,SENS0170,2024-01-23,34.543287,-94.007586,0.53,None,Arkansas,Quail Ridge
FARM0171,East Africa,Wheat,21.83,7.47,32.86,226.13,61.57,7.92,None,Organic,7.41,2024-02-07,2024-05-19,102,3637.12,SENS0171,2024-04-17,-4.682019,37.913655,0.46,Moderate,Tanzania,River Acres
FARM0172,Central USA,Rice,13.36,6.29,25.99,172.74,42.73,4.02,Drip,Inorganic,42.08,2024-03-20,2024-07-18,120,2798.7,SENS0172,2024-03-23,42.787315,-102.196133,0.89,Severe,Oklahoma,River Farm
FARM0173,North India,Maize,37.47,6.44,32.9,116.25,72.09,6.33,Manual,Inorganic,21.62,2024-02-02,2024-05-18,106,3758.96,SENS0173,2024-03-06,29.471948,79.0369,0.34,None,Dehradun,River Farms
FARM0174,North India,Maize,38.29,6.33,30.13,106.88,43.05,6.32,None,Mixed,35.92,2024-02-19,2024-07-14,146,2942.57,SENS0174,2024-05-05,28.177665,81.617005,0.73,Mild,Lucknow,River Field
FARM0175,North India,Cotton,16.05,7.47,34.44,252.12,46.31,6.54,None,Organic,49.88,2024-03-05,2024-07-26,143,4380.19,SENS0175,2024-05-25,31.291314,77.256593,0.34,Severe,Chandigarh,River Fields
FARM0176,East Africa,Cotton,29.32,7.21,25.39,279.29,40.62,8.2,None,Organic,23.65,2024-01-19,2024-05-25,127,4330.71,SENS0176,2024-02-13,1.904862,35.741116,0.36,Moderate,Kenya,River Grove
FARM0177,East Africa,Maize,40.73,6.03,28.1,193.01,63.65,5.03,None,Organic,32.82,2024-03-23,2024-07-16,115,2155.13,SENS0177,2024-07-14,-3.53786,37.91728,0.33,Severe,Kenya,River Hollow
FARM0178,Central USA,Maize,10.71,7.13,21.06,120.09,64.58,8.18,Drip,Organic,11.05,2024-03-15,2024-08-01,139,5303.29,SENS0178,2024-05-22,41.128578,-96.034025,0.35,Severe,Minnesota,River Meadow
FARM0179,South India,Cotton,35.93,7.02,32.34,255.25,65.76,4.95,Manual,Mixed,27.81,2024-01-25,2024-06-17,144,4097.14,SENS0179,2024-02-01,14.251353,79.960462,0.42,None,Bangalore,River Ranch
FARM0180,South India,Wheat,25.98,7.34,29.09,118.49,81.18,7.03,Drip,Mixed,6.38,2024-02-16,2024-06-23,128,3784.41,SENS0180,2024-06-16,13.415321,76.596255,0.4,Moderate,Bangalore,River Ridge
FARM0181,North India,Maize,10.96,5.6,32.08,244.96,50.72,5.33,Sprinkler,Mixed,14.3,2024-03-14,2024-07-14,122,2080.21,SENS0181,2024-06-21,31.418544,77.797083,0.58,Mild,Dehradun,Summit Acres
FARM0182,South India,Soybean,38.03,5.95,27.17,285.75,75.64,8.26,Manual,Inorganic,45.3,2024-02-15,2024-05-31,106,2872.84,SENS0182,2024-03-24,11.960003,76.799606,0.54,None,Bangalore,Summit Farm
FARM0183,North India,Soybean,44.98,7.43,31.79,190.36,69.69,5.7,Drip,Inorganic,7.87,2024-02-21,2024-06-10,110,5445.97,SENS0183,2024-03-25,28.257029,79.332435,0.69,Mild,Lucknow,Summit Farms
FARM0184,South India,Soybean,36.79,7.3,31.11,250.59,70,7.96,Sprinkler,Mixed,6.15,2024-02-10,2024-05-26,106,5627.65,SENS0184,2024-04-01,13.433737,79.678178,0.72,Mild,Bangalore,Summit Field
FARM0185,Central USA,Rice,34.02,6.78,24.51,285.17,57.92,5.8,Sprinkler,Mixed,44.44,2024-01-10,2024-04-15,96,3883.12,SENS0185,2024-04-13,43.32597,-93.699926,0.76,Mild,Minnesota,Summit Fields
FARM0186,Central USA,Wheat,17.78,5.95,32.43,155.12,84.34,6.23,Manual,Inorganic,43.3,2024-02-02,2024-06-26,145,4537.59,SENS0186,2024-02-20,38.342215,-96.73803,0.37,Severe,Oklahoma,Summit Grove
FARM0187,East Africa,Maize,24.46,7.24,18.02,298.09,57.13,9.92,None,Organic,19.24,2024-03-06,2024-07-23,139,2323.25,SENS0187,2024-05-30,1.615131,37.062865,0.68,None,Kenya,Summit Hollow
FARM0188,South USA,Maize,17.33,7.05,26.53,89.61,79.26,8.68,Sprinkler,Mixed,24.52,2024-02-13,2024-06-09,117,5861.31,SENS0188,2024-04-02,33.00617,-92.315424,0.74,None,Arkansas,Summit Meadow
FARM0189,Central USA,Soybean,16.67,6.85,27.53,112.21,74.68,6.07,Sprinkler,Organic,22.26,2024-03-10,2024-06-18,100,2261.15,SENS0189,2024-03-15,40.889984,-98.662568,0.74,Moderate,Oklahoma,Summit Ranch
FARM0190,South USA,Rice,22,7.3,22.19,97.11,87.4,9.51,None,Organic,15.28,2024-03-05,2024-06-16,103,4936.31,SENS0190,2024-05-19,34.041948,-88.4367,0.73,None,Mississippi,Summit Ridge
FARM0191,South USA,Maize,36.99,6.75,26.88,61.99,45.41,9.02,Drip,Mixed,10.21,2024-02-13,2024-05-20,97,4189.13,SENS0191,2024-04-13,33.320397,-95.163098,0.71,None,Arkansas,Timber Acres
FARM0192,Central USA,Cotton,33.16,6.82,20.4,201.41,46.86,8.98,Drip,Mixed,37.34,2024-01-10,2024-04-16,97,5139.04,SENS0192,2024-03-13,44.958161,-103.90726,0.46,Mild,Minnesota,Timber Farm
FARM0193,Central USA,Cotton,20.34,5.58,24.93,101.92,86.66,5.98,Drip,Organic,35.22,2024-01-27,2024-06-01,126,4676.09,SENS0193,2024-02-15,35.624439,-116.343591,0.35,None,Oregon,Timber Farms
FARM0194,Central USA,Rice,25.99,7.45,20.28,62.52,80.66,9.24,Manual,Inorganic,41.07,2024-02-14,2024-06-30,137,2463.6,SENS0194,2024-02-25,44.824273,-115.819681,0.69,Moderate,Oregon,Timber Field
FARM0195,Central USA,Cotton,43.43,6.04,29.66,143.16,57.14,4.68,None,Inorganic,17.23,2024-02-23,2024-07-16,144,3912.98,SENS0195,2024-06-09,38.967251,-103.307118,0.37,None,Oklahoma,Timber Fields
FARM0196,South India,Wheat,24.56,6.68,31.05,219.6,49.06,6.28,Manual,Mixed,6.3,2024-03-27,2024-08-10,136,5893.78,SENS0196,2024-04-29,15.408665,78.646171,0.83,Severe,Hyderabad,Timber Grove
FARM0197,North India,Wheat,19.16,6.13,29.09,219.48,78.38,7.46,Sprinkler,Mixed,44.29,2024-03-17,2024-07-29,134,4802.32,SENS0197,2024-04-10,29.699404,77.621232,0.59,Severe,Dehradun,Timber Hollow
FARM0198,South India,Soybean,41.22,6.73,15.23,283.59,65.28,6.82,None,Organic,8.37,2024-02-11,2024-05-26,105,3323.58,SENS0198,2024-03-17,11.338905,76.32147,0.69,Severe,Bangalore,Timber Meadow
FARM0199,South India,Wheat,26.07,7.1,23.96,264.15,62.35,4.71,None,Mixed,34.4,2024-01-13,2024-05-08,116,2143.33,SENS0199,2024-03-23,14.22858,78.119721,0.66,Moderate,Bangalore,Timber Ranch
FARM0200,East Africa,Soybean,17.24,6.84,34.01,140.84,42.71,5.34,None,Inorganic,30.21,2024-03-20,2024-07-18,120,4866.63,SENS0200,2024-05-05,1.082556,36.796144,0.76,Mild,Kenya,Timber Ridge
FARM0201,North India,Maize,22.43,6.77,31,186.92,58.69,4.64,Sprinkler,Inorganic,11.32,2024-03-24,2024-08-07,136,3636.84,SENS0201,2024-05-28,29.952989,75.844844,0.86,Severe,Chandigarh,Unity Acres
FARM0202,South India,Cotton,38.86,5.88,21.76,239.29,42.33,7.8,Drip,Inorganic,25.58,2024-03-17,2024-06-23,98,5855.42,SENS0202,2024-03-17,15.139494,79.554437,0.86,Severe,Hyderabad,Unity Farm
FARM0203,East Africa,Rice,34.21,5.85,31.3,75.89,72.88,7.64,Manual,Mixed,44.66,2024-02-20,2024-07-17,148,4770.06,SENS0203,2024-04-23,-1.521393,35.033417,0.88,Severe,Kenya,Unity Farms
FARM0204,South India,Rice,24.45,6.9,29.97,124.73,75.07,9.16,Sprinkler,Organic,14.44,2024-03-10,2024-07-21,133,3381.17,SENS0204,2024-04-12,12.511662,76.48597,0.87,Moderate,Bangalore,Unity Field
FARM0205,North India,Maize,29.68,6.67,33.85,227.53,73.71,9.36,Manual,Inorganic,41.37,2024-03-04,2024-06-03,91,3523.48,SENS0205,2024-03-10,28.833732,78.117608,0.75,Mild,Delhi,Unity Fields
FARM0206,Central USA,Maize,15.12,5.62,30.69,101,67.06,6.15,None,Organic,32.72,2024-03-24,2024-07-27,125,5459.37,SENS0206,2024-06-27,38.266074,-98.340688,0.61,Moderate,Oklahoma,Unity Grove
FARM0207,North India,Cotton,23.56,7.41,34.52,128.16,67.61,4.08,Manual,Organic,32.93,2024-02-27,2024-06-10,104,5645.95,SENS0207,2024-05-27,29.864682,79.714502,0.65,Mild,Dehradun,Unity Hollow
FARM0208,South India,Maize,25.71,7.47,16.49,290.62,76.75,4.72,Drip,Inorganic,17.56,2024-02-05,2024-05-15,100,4335.94,SENS0208,2024-03-08,13.026771,76.230523,0.86,None,Bangalore,Unity Meadow
FARM0209,South India,Maize,30.89,7.05,27.51,260.78,55.06,8.74,Manual,Organic,40.28,2024-02-17,2024-05-31,104,5827.95,SENS0209,2024-04-23,12.440359,76.398797,0.55,Severe,Bangalore,Unity Ranch
FARM0210,North India,Maize,17.74,5.93,21.64,140.2,50.92,8.52,None,Mixed,42.07,2024-03-01,2024-06-06,97,4675.75,SENS0210,2024-04-27,30.689926,81.557599,0.85,Mild,Dehradun,Unity Ridge
FARM0211,North India,Maize,23.35,7.09,17.27,114.15,76.2,4.15,Manual,Mixed,41.13,2024-02-16,2024-05-18,92,3185.74,SENS0211,2024-05-09,30.795677,80.716585,0.87,Mild,Dehradun,Valley Acres
FARM0212,East Africa,Soybean,10.26,5.63,28.41,243.4,83.25,6.55,Drip,Organic,29.2,2024-03-24,2024-08-10,139,3740.95,SENS0212,2024-04-11,-0.042518,36.018496,0.58,Moderate,Kenya,Valley Farm
FARM0213,North India,Wheat,12.56,5.86,20.04,67.61,81.08,9.47,None,Inorganic,25.3,2024-02-14,2024-06-03,110,2067.56,SENS0213,2024-05-10,28.555531,81.698984,0.73,None,Lucknow,Valley Farms
FARM0214,East Africa,Wheat,34.53,5.65,33.56,76.53,79.34,5.81,Drip,Inorganic,39.44,2024-02-13,2024-06-07,115,5288.49,SENS0214,2024-02-16,1.164518,36.14846,0.38,Severe,Kenya,Valley Field
FARM0215,East Africa,Maize,43.6,5.79,28.55,278.54,79.75,8.38,Manual,Organic,29.91,2024-03-05,2024-06-10,97,2167.09,SENS0215,2024-05-17,-0.795136,37.03843,0.87,Moderate,Kenya,Valley Fields
FARM0216,South India,Maize,17.41,7.31,32.03,85.61,49.2,7.7,Manual,Organic,10.16,2024-03-26,2024-07-30,126,5409,SENS0216,2024-07-12,15.896265,78.107513,0.63,None,Hyderabad,Valley Grove
FARM0217,Central USA,Wheat,18.77,5.89,26.61,287.88,57.86,8.03,Sprinkler,Organic,17.83,2024-01-07,2024-04-26,110,3943.44,SENS0217,2024-02-18,38.974747,-104.232755,0.65,Moderate,Oklahoma,Valley Hollow
FARM0218,Central USA,Cotton,15.9,6.13,30.71,228.05,72.04,5.66,Manual,Organic,35.58,2024-02-16,2024-06-14,119,3781.43,SENS0218,2024-05-25,36.650298,-111.108233,0.41,None,Oregon,Valley Meadow
FARM0219,Central USA,Rice,41.2,5.89,29.67,206.65,76.37,9.35,Drip,Mixed,31.05,2024-03-07,2024-08-02,148,2146.63,SENS0219,2024-05-12,47.04647,-104.748876,0.58,Mild,Minnesota,Valley Ranch
FARM0220,Central USA,Cotton,17.82,7.04,29.66,122.75,63.24,7.06,None,Inorganic,27.6,2024-03-08,2024-07-30,144,5856,SENS0220,2024-04-19,38.995005,-103.952469,0.4,Mild,Oklahoma,Valley Ridge
FARM0221,South USA,Maize,11.41,7.02,19.63,116.09,51.7,8.01,Manual,Inorganic,26.14,2024-02-02,2024-05-04,92,5922.36,SENS0221,2024-03-14,31.885918,-90.448149,0.68,Moderate,Mississippi,Willow Acres
FARM0222,Central USA,Soybean,29.05,5.85,28.07,141.32,72.67,9.01,Manual,Inorganic,48.77,2024-01-17,2024-05-11,115,3411.59,SENS0222,2024-05-07,41.03257,-114.572011,0.83,None,Oregon,Willow Farm
FARM0223,East Africa,Rice,25.4,5.96,25.29,120.2,47.51,4.94,Drip,Mixed,15.37,2024-02-24,2024-05-31,97,3926.07,SENS0223,2024-04-25,-2.353403,36.774849,0.69,Severe,Kenya,Willow Farms
FARM0224,North India,Rice,11.51,6.65,18.22,207.39,41.96,7.43,Drip,Organic,16.62,2024-01-17,2024-05-11,115,4397.43,SENS0224,2024-03-29,29.710645,75.989929,0.74,Moderate,Chandigarh,Willow Field
FARM0225,North India,Rice,25.72,7.49,32.35,92.64,81.52,7.61,Sprinkler,Mixed,34.68,2024-02-06,2024-06-21,136,4742.36,SENS0225,2024-06-01,31.592775,77.755982,0.53,Mild,Chandigarh,Willow Fields
FARM0226,North India,Wheat,17.08,7.22,25.09,154.95,47.48,4.58,None,Mixed,31.99,2024-03-17,2024-08-02,138,2470.07,SENS0226,2024-07-18,29.592172,81.674887,0.62,None,Lucknow,Willow Grove
FARM0227,South USA,Soybean,24.72,7.25,28.95,157.24,86.92,6.89,None,Inorganic,31.51,2024-03-25,2024-08-15,143,4786.83,SENS0227,2024-04-19,33.988098,-95.243116,0.76,None,Oklahoma,Willow Hollow
FARM0228,Central USA,Soybean,40.69,6.32,18.78,227.29,79.47,7.47,Drip,Mixed,5.32,2024-03-07,2024-07-19,134,5217.15,SENS0228,2024-06-19,39.777122,-105.396245,0.69,Moderate,Oklahoma,Willow Meadow
FARM0229,Central USA,Soybean,24.82,6.23,20.51,220.15,77.75,6.48,None,Organic,21.66,2024-03-16,2024-06-30,106,5954.03,SENS0229,2024-05-28,43.101634,-95.980796,0.74,None,Minnesota,Willow Ranch
FARM0230,South India,Cotton,37.41,7.4,17.01,177.09,79.3,8.81,Drip,Organic,22.51,2024-03-01,2024-07-20,141,2364.35,SENS0230,2024-04-07,15.200703,76.566557,0.35,Moderate,Bangalore,Willow Ridge
FARM0231,South India,Maize,12.8,5.58,22.69,296.11,70.7,7.13,Drip,Organic,33.81,2024-02-01,2024-05-13,102,5402.27,SENS0231,2024-05-13,13.636406,78.234729,0.77,Mild,Bangalore,Xenia Acres
FARM0232,East Africa,Rice,33.59,6.22,28.1,293.91,44.34,5.66,None,Inorganic,35.13,2024-02-19,2024-05-31,102,4070.97,SENS0232,2024-05-23,-1.124812,35.833999,0.63,Moderate,Kenya,Xenia Farm
FARM0233,Central USA,Maize,17.92,7.43,24.1,150.99,40.23,5.05,Drip,Mixed,8.26,2024-02-11,2024-07-10,150,2468.04,SENS0233,2024-06-21,41.607354,-95.607367,0.79,Moderate,Minnesota,Xenia Farms
FARM0234,South USA,Cotton,29.71,7.04,30.15,290.31,62.94,6.76,Drip,Inorganic,10.23,2024-01-13,2024-05-22,130,5154.62,SENS0234,2024-03-09,34.254085,-94.240927,0.49,Moderate,Arkansas,Xenia Field
FARM0235,East Africa,Soybean,10.34,7.16,19.97,73.25,73.68,8.93,Drip,Mixed,46.91,2024-02-11,2024-06-02,112,2874.26,SENS0235,2024-04-24,0.824487,37.388346,0.71,Mild,Kenya,Xenia Fields
FARM0236,South USA,Rice,18.22,5.98,20.31,107.3,81.75,9.02,Manual,Organic,40.05,2024-01-03,2024-05-15,133,5823.12,SENS0236,2024-05-08,34.840499,-95.304387,0.62,None,Oklahoma,Xenia Grove
FARM0237,South USA,Maize,31.72,6.48,34.71,274.25,83.44,6.94,Manual,Inorganic,14.99,2024-03-05,2024-06-06,93,4102.94,SENS0237,2024-04-28,33.88665,-94.437622,0.6,Severe,Arkansas,Xenia Hollow
FARM0238,South India,Cotton,44.18,6.9,24.2,222.3,40.59,5.26,Drip,Inorganic,21.27,2024-02-06,2024-06-10,125,3051.4,SENS0238,2024-03-11,12.292269,76.98977,0.52,Severe,Bangalore,Xenia Meadow
FARM0239,South USA,Rice,24.67,7,22.3,150.15,62.54,7.43,Sprinkler,Organic,37.44,2024-01-18,2024-05-14,117,5425.23,SENS0239,2024-02-12,32.206804,-89.698893,0.39,None,Mississippi,Xenia Ranch
FARM0240,South India,Cotton,27.49,7.49,31.99,179.25,76.03,8.71,Manual,Inorganic,30.3,2024-03-02,2024-06-25,115,2395.9,SENS0240,2024-03-22,15.633121,78.016804,0.59,None,Hyderabad,Xenia Ridge
FARM0241,South USA,Maize,19.09,6.22,26.15,252.5,57.21,6.47,Manual,Mixed,48.34,2024-01-19,2024-05-24,126,4599.46,SENS0241,2024-03-27,32.980583,-89.387179,0.51,Severe,Mississippi,Yonder Acres
FARM0242,South USA,Wheat,23.34,6.07,27.63,86.21,48.38,8.85,Manual,Inorganic,33.41,2024-03-13,2024-08-04,144,5628.29,SENS0242,2024-04-02,32.16391,-89.289661,0.49,Moderate,Mississippi,Yonder Farm
FARM0243,Central USA,Soybean,32.56,6.04,23.9,265.7,58.16,7.52,None,Inorganic,12.53,2024-01-05,2024-05-20,136,2938.51,SENS0243,2024-03-09,45.242953,-118.323176,0.35,Mild,Oregon,Yonder Farms
FARM0244,South USA,Wheat,13.34,7.37,24.46,63.46,78.55,7.14,Drip,Organic,16.81,2024-01-03,2024-05-13,131,5726.36,SENS0244,2024-04-11,32.436516,-94.678372,0.47,Mild,Louisiana,Yonder Field
FARM0245,South India,Soybean,39.35,5.56,28.27,265.09,56.26,6.86,Manual,Mixed,25.02,2024-03-18,2024-06-27,101,4363.32,SENS0245,2024-05-15,15.591293,78.145367,0.64,Moderate,Hyderabad,Yonder Fields
FARM0246,Central USA,Cotton,28.89,7.11,23.84,141.45,52.99,5.82,Drip,Mixed,41.69,2024-01-12,2024-04-29,108,3876.79,SENS0246,2024-01-13,43.974825,-118.094114,0.75,Moderate,Oregon,Yonder Grove
FARM0247,North India,Cotton,37.93,6.69,30.94,187.05,49.43,9.29,None,Inorganic,16.25,2024-03-24,2024-08-02,131,3558.89,SENS0247,2024-06-28,31.18104,78.614776,0.68,Moderate,Dehradun,Yonder Hollow
FARM0248,Central USA,Soybean,38.31,6.33,32.07,95.6,54.48,7.82,None,Inorganic,36.52,2024-02-07,2024-05-27,110,2077.58,SENS0248,2024-02-13,44.976672,-105.037834,0.88,Moderate,Minnesota,Yonder Meadow
FARM0249,Central USA,Rice,35.03,6.95,19.66,87.67,64.68,6.05,Manual,Inorganic,49.91,2024-02-23,2024-07-12,140,2126.95,SENS0249,2024-03-14,40.019144,-118.751099,0.33,Severe,Oregon,Yonder Ranch
FARM0250,North India,Soybean,26.46,5.88,31.83,254.31,81.41,4.73,Sprinkler,Inorganic,39.71,2024-02-08,2024-06-24,137,5978.14,SENS0250,2024-03-29,29.85381,80.643037,0.61,Mild,Dehradun,Yonder Ridge
FARM0251,South USA,Cotton,33.85,6.12,21.46,207.29,42.11,9.62,Drip,Inorganic,26.66,2024-02-07,2024-05-30,113,5550.08,SENS0251,2024-05-27,34.488069,-89.693582,0.44,Severe,Mississippi,Aspen Acres
FARM0252,Central USA,Wheat,15.86,6.05,17.39,247.29,40.45,4.25,None,Mixed,31.83,2024-02-25,2024-05-30,95,2994.89,SENS0252,2024-04-28,43.192333,-117.322403,0.86,None,Oregon,Aspen Farm
FARM0253,North India,Maize,32.56,6.9,30.83,81.46,51.63,9.89,Manual,Inorganic,37.99,2024-01-23,2024-05-16,114,3432.67,SENS0253,2024-02-09,29.109556,81.617543,0.72,Moderate,Lucknow,Aspen Farms
FARM0254,East Africa,Cotton,16.64,5.87,21.95,233.1,53.77,8.99,Sprinkler,Organic,28.9,2024-02-10,2024-07-01,142,3053.4,SENS0254,2024-05-13,-2.61902,35.264384,0.6,Mild,Kenya,Aspen Field
FARM0255,North India,Soybean,39.99,7.05,19.78,230.25,72.91,7.23,None,Organic,28.58,2024-02-25,2024-06-29,125,2616.53,SENS0255,2024-04-01,28.061231,78.226482,0.37,None,Delhi,Aspen Fields
FARM0256,North India,Rice,16.25,5.56,17.14,97.9,41.59,7.85,None,Mixed,27.05,2024-03-23,2024-07-28,127,3023.75,SENS0256,2024-06-24,28.055356,80.777777,0.31,Mild,Lucknow,Aspen Grove
FARM0257,South USA,Wheat,26.38,6.78,22.22,235.87,84.52,8.93,Drip,Mixed,16.96,2024-01-24,2024-04-27,94,5337.83,SENS0257,2024-02-02,33.441291,-92.220237,0.36,Mild,Arkansas,Aspen Hollow
FARM0258,East Africa,Cotton,16.63,6.55,19.98,206.33,48.94,8.5,None,Mixed,9.75,2024-03-19,2024-07-09,112,4697.97,SENS0258,2024-06-16,-4.666172,37.546655,0.4,Mild,Tanzania,Aspen Meadow
FARM0259,East Africa,Cotton,27.66,6.82,25.68,199.98,86.68,9.41,Manual,Inorganic,23.56,2024-03-14,2024-08-03,142,4903.47,SENS0259,2024-05-14,-3.239635,36.508683,0.76,Moderate,Tanzania,Aspen Ranch
FARM0260,Central USA,Cotton,25.66,6.29,29.53,295.74,69.79,7.11,Manual,Organic,18.52,2024-01-07,2024-05-30,144,3259.62,SENS0260,2024-03-17,38.835183,-99.734946,0.64,Mild,Oklahoma,Aspen Ridge
FARM0261,North India,Wheat,26.11,5.81,20.3,272.41,52.49,5.54,Manual,Organic,30.67,2024-03-07,2024-07-21,136,2308.81,SENS0261,2024-05-29,28.431191,79.429227,0.8,None,Lucknow,Brookside Acres
FARM0262,East Africa,Maize,11.31,7.12,22.63,245.03,86.09,6.01,None,Inorganic,46.86,2024-01-28,2024-06-15,139,2906.87,SENS0262,2024-01-30,-2.624494,37.095735,0.33,None,Kenya,Brookside Farm
FARM0263,Central USA,Soybean,29.77,6.15,28.96,88.3,73.68,9.98,None,Mixed,30.89,2024-01-08,2024-05-04,117,3159.13,SENS0263,2024-02-27,45.571686,-100.54819,0.59,None,Minnesota,Brookside Farms
FARM0264,East Africa,Cotton,19.19,6.3,23.69,224.47,78.1,6.89,Sprinkler,Inorganic,22.79,2024-03-07,2024-07-10,125,4463.99,SENS0264,2024-06-09,-4.85004,35.016274,0.46,Severe,Tanzania,Brookside Field
FARM0265,Central USA,Soybean,13.14,6.84,23.47,137.08,56.04,7.56,Drip,Inorganic,12.62,2024-02-20,2024-07-11,142,5960.64,SENS0265,2024-06-12,45.638086,-107.856888,0.85,Mild,Oregon,Brookside Fields
FARM0266,South India,Maize,15.46,6.96,16.72,234.9,52.15,7.73,Sprinkler,Inorganic,5.62,2024-03-26,2024-07-01,97,3220.47,SENS0266,2024-05-25,15.08411,77.07752,0.62,Mild,Bangalore,Brookside Grove
FARM0267,East Africa,Soybean,36.26,6.6,27.46,298.08,74.75,8.01,None,Mixed,45.77,2024-03-02,2024-06-16,106,2681.28,SENS0267,2024-04-07,-0.561468,35.321541,0.46,Severe,Kenya,Brookside Hollow
FARM0268,North India,Wheat,23.6,6.04,32.04,215.03,83.21,4.11,None,Organic,49.09,2024-03-23,2024-06-27,96,5615.49,SENS0268,2024-05-24,31.056349,76.752277,0.41,Severe,Chandigarh,Brookside Meadow
FARM0269,East Africa,Wheat,11.39,7.34,21.1,172.48,77.22,4.11,Manual,Inorganic,33.14,2024-01-17,2024-05-03,107,5247.57,SENS0269,2024-04-06,-2.259397,35.849426,0.9,None,Kenya,Brookside Ranch
FARM0270,East Africa,Maize,17.9,6.18,22.86,84.32,76.49,7.12,Sprinkler,Inorganic,15.82,2024-01-14,2024-05-02,109,5638.94,SENS0270,2024-02-25,1.298336,37.039456,0.69,Mild,Kenya,Brookside Ridge
FARM0271,South India,Maize,34.1,7.3,33.19,157.52,85.45,8.62,Sprinkler,Inorganic,8.05,2024-03-24,2024-06-29,97,2736.54,SENS0271,2024-04-11,13.117714,76.114745,0.83,Severe,Bangalore,Cottonwood Acres
FARM0272,South USA,Maize,25.51,7.37,32.88,283.31,53.69,8.67,Drip,Organic,13.31,2024-03-20,2024-07-05,107,4422.42,SENS0272,2024-06-06,33.870012,-95.073582,0.71,Moderate,Arkansas,Cottonwood Farm
FARM0273,North India,Cotton,14.69,7.19,24.38,212.39,49.2,6.32,None,Organic,12.37,2024-01-02,2024-04-27,116,5058.16,SENS0273,2024-01-03,30.040097,81.423749,0.43,Mild,Lucknow,Cottonwood Farms
FARM0274,South India,Wheat,16.2,7.41,23.79,204.26,74.39,9.2,Sprinkler,Inorganic,23.22,2024-01-20,2024-06-05,137,5297.31,SENS0274,2024-04-09,12.653046,76.560053,0.64,None,Bangalore,Cottonwood Field
FARM0275,East Africa,Wheat,25.81,7.15,15.85,298.96,65.94,6.37,Drip,Mixed,22.43,2024-03-02,2024-06-12,102,3164.72,SENS0275,2024-04-21,-2.251974,35.577244,0.47,Mild,Kenya,Cottonwood Fields
FARM0276,South USA,Maize,31.46,5.61,25.34,85.56,81.49,6.71,Drip,Organic,40.04,2024-03-18,2024-06-24,98,3572.27,SENS0276,2024-04-28,33.418512,-93.646514,0.65,Mild,Arkansas,Cottonwood Grove
FARM0277,South USA,Wheat,18.75,6.88,33.14,249.12,75.92,4.74,Drip,Mixed,25.22,2024-02-03,2024-06-05,123,4829.12,SENS0277,2024-05-06,31.992032,-89.380476,0.87,Severe,Mississippi,Cottonwood Hollow
FARM0278,East Africa,Cotton,11.54,5.84,21.7,267.83,83.13,4.97,Sprinkler,Organic,39.61,2024-01-14,2024-05-02,109,3238.07,SENS0278,2024-04-21,0.193772,35.447632,0.41,Mild,Kenya,Cottonwood Meadow
FARM0279,South India,Wheat,31.79,6.01,24.17,263.85,67.18,4.03,None,Organic,14.76,2024-03-16,2024-07-13,119,3640.61,SENS0279,2024-03-26,14.078101,78.364995,0.83,Moderate,Bangalore,Cottonwood Ranch
FARM0280,East Africa,Soybean,38.7,5.92,18.7,63.77,57.45,4.87,Drip,Mixed,31.01,2024-03-10,2024-06-29,111,5681.54,SENS0280,2024-03-16,-0.796693,35.059177,0.4,Moderate,Kenya,Cottonwood Ridge
FARM0281,East Africa,Soybean,30.03,6.62,34.33,237.33,58.01,4.22,Manual,Inorganic,21.59,2024-02-27,2024-05-31,94,5033.77,SENS0281,2024-05-07,-0.455461,35.551659,0.37,Moderate,Kenya,Driftwood Acres
FARM0282,Central USA,Soybean,24.48,5.92,19.18,64.55,68.57,9.88,Drip,Inorganic,37.58,2024-03-26,2024-08-08,135,3148.75,SENS0282,2024-06-15,47.736134,-98.393696,0.67,Mild,Minnesota,Driftwood Farm
FARM0283,East Africa,Soybean,27.37,6.96,24.95,252,84.18,5.4,Manual,Organic,5.07,2024-01-15,2024-05-24,130,5186.93,SENS0283,2024-03-08,-0.484462,35.50679,0.55,Moderate,Kenya,Driftwood Farms
FARM0284,Central USA,Soybean,38.21,5.92,27.81,222.5,52.72,4.41,Manual,Mixed,29.75,2024-01-04,2024-05-16,133,3333.13,SENS0284,2024-04-14,36.653333,-117.598616,0.32,Mild,Oregon,Driftwood Field
FARM0285,South India,Maize,39.18,7.34,24.58,168.63,41.78,4.81,Sprinkler,Mixed,25.73,2024-03-11,2024-07-08,119,5135.96,SENS0285,2024-05-02,14.079778,79.081709,0.61,Moderate,Bangalore,Driftwood Fields
FARM0286,East Africa,Soybean,10.66,6.65,21.63,279.05,79.79,4.4,Sprinkler,Inorganic,42.83,2024-02-13,2024-06-22,130,4137.09,SENS0286,2024-03-26,-0.374757,37.005021,0.66,Moderate,Kenya,Driftwood Grove
FARM0287,Central USA,Wheat,19.5,5.67,32.54,142.9,81.47,5.82,Manual,Organic,10.05,2024-01-25,2024-05-06,102,5653.42,SENS0287,2024-03-21,36.185701,-104.500886,0.84,Mild,Oklahoma,Driftwood Hollow
FARM0288,South India,Maize,42.33,6.96,25.47,243.88,47.16,9.23,Sprinkler,Organic,37.61,2024-02-13,2024-06-27,135,5459.24,SENS0288,2024-03-13,13.760866,77.018425,0.71,None,Bangalore,Driftwood Meadow
FARM0289,Central USA,Cotton,41.12,5.71,30.32,236.39,41.12,8.55,Sprinkler,Inorganic,14.02,2024-02-09,2024-06-12,124,3276.6,SENS0289,2024-04-05,39.434914,-104.029455,0.39,None,Oklahoma,Driftwood Ranch
FARM0290,North India,Soybean,29.59,5.7,25.85,187.34,53.55,9.66,Manual,Mixed,16.02,2024-01-10,2024-05-18,129,5568.97,SENS0290,2024-05-02,28.319827,81.846631,0.84,None,Lucknow,Driftwood Ridge
FARM0291,North India,Cotton,11.88,6.35,18.58,199.03,69.64,9.02,None,Mixed,21,2024-02-27,2024-06-08,102,4851.59,SENS0291,2024-05-22,30.466954,80.619511,0.85,Severe,Dehradun,Elmvale Acres
FARM0292,East Africa,Rice,13.25,7.1,28.97,74.32,55.52,7.87,None,Inorganic,15.43,2024-01-05,2024-05-29,145,5582.8,SENS0292,2024-03-11,-1.032544,37.262497,0.72,Moderate,Kenya,Elmvale Farm
FARM0293,Central USA,Cotton,27.06,5.63,17.26,169.66,82.29,5.69,Manual,Mixed,30.86,2024-03-04,2024-06-27,115,5270.21,SENS0293,2024-06-13,41.592543,-115.098183,0.34,Moderate,Oregon,Elmvale Farms
FARM0294,East Africa,Cotton,24.03,6.33,27.42,186.99,88.69,6.3,Manual,Organic,41.63,2024-03-14,2024-08-01,140,5920.82,SENS0294,2024-06-09,0.576387,36.673392,0.7,None,Kenya,Elmvale Field
FARM0295,East Africa,Cotton,14,6.69,21.51,74.41,62.26,5.85,None,Organic,31.92,2024-03-27,2024-08-02,128,5085.37,SENS0295,2024-07-02,-4.900141,37.291154,0.34,Mild,Tanzania,Elmvale Fields
FARM0296,South India,Soybean,41.61,6.77,15,86.68,47.46,7.19,None,Mixed,31.01,2024-01-07,2024-05-19,133,5509.7,SENS0296,2024-03-23,14.867243,78.184777,0.48,Severe,Bangalore,Elmvale Grove
FARM0297,Central USA,Wheat,30.4,6.72,25.21,261.91,82.63,4.37,Drip,Organic,36.65,2024-02-04,2024-06-28,145,3128.84,SENS0297,2024-02-11,40.496138,-119.63273,0.54,Moderate,Oregon,Elmvale Hollow
FARM0298,South USA,Cotton,23.35,6.59,28.25,168.72,49.41,6.31,Manual,Inorganic,11.94,2024-03-05,2024-06-11,98,2046.41,SENS0298,2024-05-26,31.308193,-89.999905,0.59,Severe,Mississippi,Elmvale Meadow
FARM0299,South India,Wheat,14.8,7.11,32.2,273.4,74.77,9.58,Sprinkler,Inorganic,27.92,2024-03-27,2024-07-23,118,3538.86,SENS0299,2024-04-24,15.117813,76.792573,0.65,Mild,Bangalore,Elmvale Ranch
FARM0300,East Africa,Maize,24.38,6.59,22.34,294.56,68.41,8.23,Drip,Mixed,26.67,2024-03-03,2024-06-10,99,4920.74,SENS0300,2024-05-09,1.127035,36.275346,0.77,Severe,Kenya,Elmvale Ridge
FARM0301,East Africa,Wheat,28.32,6.72,19.9,207.67,73.19,8.01,Manual,Mixed,7.37,2024-02-18,2024-07-06,139,2043.13,SENS0301,2024-06-13,-3.324036,36.221712,0.74,Severe,Tanzania,Foxrun Acres
FARM0302,Central USA,Maize,20.12,5.57,33.46,237.36,76.35,7.38,Drip,Mixed,26.29,2024-01-19,2024-04-21,93,4625.28,SENS0302,2024-02-25,36.767752,-108.988895,0.47,None,Texas,Foxrun Farm
FARM0303,South India,Soybean,12.69,7.07,20.04,203.95,53.76,5.54,Drip,Mixed,12.86,2024-03-24,2024-07-01,99,4636.62,SENS0303,2024-05-10,14.654801,76.879401,0.72,Severe,Bangalore,Foxrun Farms
FARM0304,South India,Soybean,40.17,6.19,16.69,86.27,86.7,4.92,None,Inorganic,39.67,2024-01-22,2024-05-19,118,4904,SENS0304,2024-02-12,14.78271,78.763699,0.51,Moderate,Bangalore,Foxrun Field
FARM0305,North India,Wheat,15.87,6.3,21.03,236.54,77.62,7.2,None,Mixed,36.75,2024-02-09,2024-05-18,99,4121.77,SENS0305,2024-04-04,30.430529,81.13675,0.57,Moderate,Dehradun,Foxrun Fields
FARM0306,East Africa,Wheat,13.41,6.56,22.08,261.06,70.52,7.91,Manual,Inorganic,17.16,2024-01-09,2024-05-19,131,4336.71,SENS0306,2024-05-06,-3.020693,35.609842,0.74,Mild,Tanzania,Foxrun Grove
FARM0307,East Africa,Maize,33.72,7.49,21.27,52.64,40.42,4.41,None,Organic,28.64,2024-03-15,2024-07-05,112,2877.67,SENS0307,2024-04-20,-0.879961,36.787413,0.67,None,Kenya,Foxrun Hollow
FARM0308,East Africa,Rice,43.27,6.78,29.16,79.99,82.82,4.78,Sprinkler,Organic,36.3,2024-02-10,2024-06-08,119,4641.91,SENS0308,2024-02-19,-0.81083,35.668045,0.47,Severe,Kenya,Foxrun Meadow
FARM0309,Central USA,Maize,15.67,5.65,30.54,145.7,56.63,4.36,Manual,Organic,24.83,2024-02-07,2024-06-15,129,3570.54,SENS0309,2024-06-11,46.832526,-113.109597,0.56,None,Oregon,Foxrun Ranch
FARM0310,South USA,Maize,13.62,5.65,26.43,112.65,62.29,9.38,Sprinkler,Mixed,33.82,2024-01-22,2024-05-15,114,3065.75,SENS0310,2024-04-20,33.794242,-96.641433,0.3,Severe,Oklahoma,Foxrun Ridge
FARM0311,South USA,Cotton,24.14,6.96,31.25,67.52,51.29,6.31,None,Organic,30.53,2024-02-11,2024-06-23,133,3211.31,SENS0311,2024-02-25,34.043358,-96.804708,0.35,Moderate,Oklahoma,Greenvale Acres
FARM0312,North India,Cotton,36.62,6.08,19.06,188.62,88.38,7.96,Manual,Mixed,22.55,2024-01-21,2024-06-03,134,3437.04,SENS0312,2024-02-11,28.728336,80.415309,0.41,None,Lucknow,Greenvale Farm
FARM0313,South India,Wheat,35.19,6.69,24.78,65.75,67.03,5.85,None,Organic,6.67,2024-01-11,2024-05-30,140,4884.05,SENS0313,2024-04-23,12.935208,76.674502,0.7,Severe,Bangalore,Greenvale Farms
FARM0314,East Africa,Rice,35.94,5.97,16.44,233.86,64.44,4.11,Drip,Organic,36.56,2024-01-01,2024-04-11,101,4530.65,SENS0314,2024-02-09,-4.428623,36.067572,0.67,None,Tanzania,Greenvale Field
FARM0315,North India,Wheat,27.4,7.1,19.41,251.11,61.31,8.87,None,Inorganic,10.44,2024-03-19,2024-07-21,124,2549.32,SENS0315,2024-07-04,31.435466,78.460803,0.33,Mild,Dehradun,Greenvale Fields
FARM0316,Central USA,Wheat,14.23,5.78,23.3,224.07,67.67,6.63,Drip,Organic,9.5,2024-03-20,2024-07-12,114,5110.65,SENS0316,2024-03-22,47.0665,-106.93559,0.3,None,Minnesota,Greenvale Grove
FARM0317,East Africa,Maize,24.57,7.11,30.45,223.09,50.31,7.84,None,Inorganic,15.77,2024-01-20,2024-06-02,134,2150.48,SENS0317,2024-03-06,0.731614,35.640972,0.35,Moderate,Kenya,Greenvale Hollow
FARM0318,Central USA,Cotton,10.16,5.97,17.35,182.55,44.78,6.17,Sprinkler,Inorganic,39.66,2024-03-07,2024-06-22,107,2212.28,SENS0318,2024-03-21,39.668628,-100.053511,0.88,Severe,Oklahoma,Greenvale Meadow
FARM0319,South USA,Rice,15.59,7.35,16.08,141.05,50.48,5.51,None,Organic,9.7,2024-01-18,2024-04-28,101,2632.18,SENS0319,2024-01-21,33.421052,-88.09415,0.84,Severe,Mississippi,Greenvale Ranch
FARM0320,East Africa,Soybean,21.41,5.9,28.54,131.42,78.95,5.96,Drip,Organic,38.2,2024-01-13,2024-06-08,147,2882.65,SENS0320,2024-05-12,0.941668,37.025849,0.56,Mild,Kenya,Greenvale Ridge
FARM0321,East Africa,Cotton,16.23,6.25,24.15,98.54,57.93,5.62,Manual,Organic,6.44,2024-03-02,2024-06-17,107,2546.01,SENS0321,2024-04-30,-2.352086,36.165256,0.51,Moderate,Kenya,Hilltop Acres
FARM0322,East Africa,Rice,37.63,6.78,27.23,92.48,88.51,9.13,Drip,Inorganic,43.56,2024-02-28,2024-06-10,103,4366.32,SENS0322,2024-04-27,-2.884219,36.094394,0.74,Mild,Kenya,Hilltop Farm
FARM0323,South India,Maize,25.2,5.94,33.55,286.56,85.69,9.39,None,Organic,6.8,2024-02-24,2024-07-12,139,4016.87,SENS0323,2024-06-11,11.591384,76.244859,0.78,None,Bangalore,Hilltop Farms
FARM0324,South USA,Cotton,18.42,6.62,15.25,232.95,87.5,4.8,Manual,Organic,34.14,2024-01-01,2024-04-30,120,4676.14,SENS0324,2024-01-21,33.108058,-94.769293,0.75,None,Arkansas,Hilltop Field
FARM0325,South USA,Cotton,37.01,7.25,23.11,247.46,58.52,6.79,Drip,Mixed,8.18,2024-03-11,2024-07-12,123,2130.86,SENS0325,2024-05-04,32.501513,-91.82153,0.67,Mild,Louisiana,Hilltop Fields
FARM0326,North India,Soybean,40.83,6.97,16.1,286.33,73.73,9.33,Drip,Inorganic,21.45,2024-03-02,2024-06-23,113,3465.73,SENS0326,2024-05-23,28.207972,80.869596,0.73,Mild,Lucknow,Hilltop Grove
FARM0327,South India,Maize,18.35,5.73,24.57,284.79,69.01,9.75,Sprinkler,Mixed,39.24,2024-02-12,2024-07-08,147,3069.43,SENS0327,2024-05-30,12.947158,76.381832,0.51,Severe,Bangalore,Hilltop Hollow
FARM0328,East Africa,Soybean,39.03,6.44,25.64,256.34,84.97,6.71,Manual,Mixed,47.54,2024-01-07,2024-06-02,147,5535.92,SENS0328,2024-01-29,1.850998,37.954665,0.47,None,Kenya,Hilltop Meadow
FARM0329,North India,Rice,19.66,6.89,24.93,268.75,66.03,7.76,Manual,Inorganic,48.63,2024-03-05,2024-07-03,120,3386.8,SENS0329,2024-04-30,28.982789,76.742149,0.41,None,Delhi,Hilltop Ranch
FARM0330,South India,Soybean,32.56,6.32,21.86,211.51,56.32,7.56,None,Inorganic,18.68,2024-01-26,2024-05-14,109,2686.95,SENS0330,2024-02-28,14.138006,79.707689,0.47,None,Bangalore,Hilltop Ridge
FARM0331,South India,Maize,19.95,7.41,27.37,90.2,66.77,5.09,Sprinkler,Mixed,36.18,2024-03-26,2024-07-03,99,2645.02,SENS0331,2024-04-09,15.861294,79.61111,0.38,Moderate,Hyderabad,Ironwood Acres
FARM0332,Central USA,Rice,17.18,6.91,28.31,294.51,47.4,6.69,Sprinkler,Mixed,18.57,2024-01-13,2024-06-10,149,3997.67,SENS0332,2024-02-19,35.641448,-96.801435,0.39,Moderate,Oklahoma,Ironwood Farm
FARM0333,Central USA,Cotton,41.36,7.44,30.08,298.52,73.34,8.8,None,Inorganic,36.01,2024-03-16,2024-08-10,147,2160.32,SENS0333,2024-08-04,36.518776,-99.267962,0.67,Mild,Oklahoma,Ironwood Farms
FARM0334,South USA,Maize,13.24,5.61,27.83,195.86,51.11,9.61,Manual,Organic,6.01,2024-03-28,2024-07-24,118,4708.25,SENS0334,2024-04-08,31.088252,-93.393568,0.59,None,Louisiana,Ironwood Field
FARM0335,Central USA,Cotton,15.18,7.21,22.39,143.21,54.23,6.11,None,Mixed,8.94,2024-03-15,2024-07-30,137,5970.39,SENS0335,2024-07-06,42.306268,-115.095392,0.88,Severe,Oregon,Ironwood Fields
FARM0336,South USA,Rice,39.24,6.7,17.87,125.81,89.42,7.15,Manual,Organic,46.99,2024-03-25,2024-07-17,114,2353.79,SENS0336,2024-05-16,34.581257,-93.737998,0.4,Severe,Arkansas,Ironwood Grove
FARM0337,East Africa,Rice,16.97,7.16,20.79,172.65,81.14,5.81,Manual,Inorganic,30.17,2024-02-08,2024-05-09,91,5164.88,SENS0337,2024-02-27,-0.930533,37.469994,0.8,Severe,Kenya,Ironwood Hollow
FARM0338,North India,Maize,24.6,6.48,28.76,111.19,45.97,5.66,Drip,Mixed,38.55,2024-03-16,2024-07-20,126,3744.27,SENS0338,2024-04-18,31.346436,77.587572,0.72,None,Chandigarh,Ironwood Meadow
FARM0339,Central USA,Soybean,35.65,5.54,20.19,195.41,47.31,6.77,Sprinkler,Inorganic,12.35,2024-02-12,2024-06-07,116,4544.99,SENS0339,2024-03-28,47.083117,-118.250178,0.68,None,Oregon,Ironwood Ranch
FARM0340,East Africa,Rice,36.83,5.87,16.89,238.16,67.19,9.23,Manual,Inorganic,35.84,2024-03-12,2024-06-16,96,4137.68,SENS0340,2024-04-26,-0.209936,37.551694,0.61,Moderate,Kenya,Ironwood Ridge
FARM0341,South USA,Cotton,21.91,7.32,17.05,88.64,51.06,5.13,Drip,Inorganic,25.72,2024-01-04,2024-05-25,142,2524.93,SENS0341,2024-01-08,32.961591,-91.135803,0.52,Severe,Mississippi,Jackpine Acres
FARM0342,East Africa,Soybean,36.73,6.18,29.2,57.19,80.73,5.33,Sprinkler,Mixed,15.2,2024-01-07,2024-04-14,98,5924.44,SENS0342,2024-03-01,-3.103735,35.044749,0.35,Severe,Tanzania,Jackpine Farm
FARM0343,South USA,Wheat,16.87,5.57,28.2,198.29,63.45,9.45,Drip,Organic,18.57,2024-01-25,2024-04-30,96,5129.48,SENS0343,2024-04-11,33.534197,-89.840454,0.41,Moderate,Mississippi,Jackpine Farms
FARM0344,North India,Wheat,15.09,6.99,20.55,194.94,57.61,9.13,Sprinkler,Mixed,30.66,2024-01-27,2024-06-02,127,5052.98,SENS0344,2024-03-22,30.993924,76.187484,0.4,None,Chandigarh,Jackpine Field
FARM0345,North India,Rice,42.22,7.2,24.49,224.53,49.26,8.04,Drip,Organic,42.56,2024-02-14,2024-05-27,103,4057,SENS0345,2024-04-06,28.873035,80.616721,0.37,None,Lucknow,Jackpine Fields
FARM0346,East Africa,Rice,27.35,6.22,20.77,230.53,44.11,6.96,None,Inorganic,25.56,2024-03-10,2024-07-21,133,5904.72,SENS0346,2024-07-01,-3.103776,35.448088,0.89,Severe,Tanzania,Jackpine Grove
FARM0347,South India,Wheat,41.32,7.1,33.78,141.86,40.64,8.04,Drip,Inorganic,24.71,2024-03-22,2024-06-25,95,2476.87,SENS0347,2024-05-11,11.193498,79.524169,0.36,Mild,Bangalore,Jackpine Hollow
FARM0348,North India,Maize,44.13,6.18,26.9,297.67,46.14,9.03,None,Inorganic,39.42,2024-03-19,2024-07-04,107,5025.21,SENS0348,2024-06-29,30.965139,80.238517,0.59,Severe,Dehradun,Jackpine Meadow
FARM0349,South USA,Soybean,19.76,7.04,17.16,112.67,64.86,7.77,Sprinkler,Organic,9.48,2024-01-27,2024-04-30,94,3992.54,SENS0349,2024-01-30,32.953625,-93.290242,0.71,Mild,Arkansas,Jackpine Ranch
FARM0350,Central USA,Soybean,31.81,7.02,28.22,179.99,64.61,6.8,Manual,Mixed,27.41,2024-03-09,2024-07-11,124,3374.46,SENS0350,2024-06-27,43.882686,-107.378292,0.76,Severe,Oklahoma,Jackpine Ridge
FARM0351,North India,Cotton,25.75,7.21,23.85,59,48.84,7.96,Manual,Mixed,12.39,2024-02-05,2024-05-24,109,4862.89,SENS0351,2024-04-07,31.637589,81.828942,0.59,Severe,Dehradun,Larkspur Acres
FARM0352,South USA,Soybean,39.9,6.51,22.83,173.67,88.54,7.7,Manual,Inorganic,19.42,2024-01-19,2024-04-20,92,2512.79,SENS0352,2024-03-05,31.829667,-92.363001,0.32,Moderate,Louisiana,Larkspur Farm
FARM0353,South USA,Wheat,24.99,7.48,23.24,64.11,52.21,5.41,Manual,Mixed,8.82,2024-03-03,2024-07-26,145,3219.65,SENS0353,2024-05-28,31.691153,-92.466898,0.32,Severe,Louisiana,Larkspur Farms
FARM0354,East Africa,Soybean,41.55,6.03,28.92,197,89.29,6.27,None,Inorganic,30.76,2024-02-04,2024-06-17,134,4700.45,SENS0354,2024-04-30,-3.378929,36.440833,0.7,Mild,Tanzania,Larkspur Field
FARM0355,East Africa,Maize,22.72,6.37,24.94,261.83,79.36,9.04,Sprinkler,Inorganic,16.93,2024-02-19,2024-06-13,115,5218.41,SENS0355,2024-05-08,-1.495336,35.740277,0.81,None,Kenya,Larkspur Fields
FARM0356,East Africa,Maize,19.57,6.63,25.62,156.78,57.37,4.46,Manual,Mixed,41.19,2024-02-22,2024-06-25,124,3253.41,SENS0356,2024-04-15,-1.763068,35.241373,0.57,Mild,Kenya,Larkspur Grove
FARM0357,North India,Soybean,40.19,6.65,19.26,290.53,77.11,6.8,None,Mixed,37.7,2024-01-17,2024-04-28,102,3457.1,SENS0357,2024-02-04,29.450675,78.191052,0.76,Severe,Dehradun,Larkspur Hollow
FARM0358,South USA,Maize,40.11,7.32,27.68,261.49,53.35,5.72,Sprinkler,Inorganic,35.91,2024-01-13,2024-04-27,105,2454.23,SENS0358,2024-02-06,34.085529,-93.547034,0.49,Severe,Arkansas,Larkspur Meadow
FARM0359,East Africa,Cotton,24.77,7.31,19.04,118.18,41.46,8.74,Manual,Mixed,29.78,2024-03-28,2024-06-28,92,5855.15,SENS0359,2024-05-29,-3.611593,37.111703,0.84,Moderate,Tanzania,Larkspur Ranch
FARM0360,East Africa,Maize,40.35,7.3,23.14,140.86,72.87,4.54,Sprinkler,Organic,10.04,2024-03-17,2024-08-13,149,2482.57,SENS0360,2024-08-12,0.674113,36.610609,0.45,None,Kenya,Larkspur Ridge
FARM0361,South India,Soybean,14.28,7.11,21.59,196.08,59.5,8.49,Sprinkler,Inorganic,14.81,2024-01-06,2024-04-18,103,5879.69,SENS0361,2024-03-02,13.451486,78.190845,0.33,Moderate,Bangalore,Meadowbrook Acres
FARM0362,North India,Maize,29.1,6.45,19.93,119.43,79.21,4.87,None,Mixed,21.55,2024-02-01,2024-06-11,131,5867.22,SENS0362,2024-02-09,28.716125,80.975647,0.86,Mild,Lucknow,Meadowbrook Farm
FARM0363,Central USA,Soybean,23.46,6.78,29.01,275.79,74.26,7.21,Sprinkler,Inorganic,22.48,2024-02-09,2024-05-28,109,2361,SENS0363,2024-05-24,47.050452,-114.45496,0.82,Mild,Oregon,Meadowbrook Farms
FARM0364,South USA,Maize,40.78,7.03,23.13,58.47,83.32,8.94,None,Inorganic,38.16,2024-02-23,2024-06-19,117,5507.04,SENS0364,2024-06-06,32.328773,-88.763364,0.46,None,Mississippi,Meadowbrook Field
FARM0365,Central USA,Cotton,31.07,7.13,29.76,163.32,41.37,4.31,Sprinkler,Mixed,24.95,2024-03-05,2024-06-03,90,3602.65,SENS0365,2024-05-24,46.883715,-98.829393,0.37,Mild,Minnesota,Meadowbrook Fields
FARM0366,East Africa,Rice,39.64,6.87,30.85,129.85,63.92,8.41,Manual,Organic,35.94,2024-02-26,2024-06-13,108,2794.65,SENS0366,2024-04-19,-0.625763,36.271458,0.53,Mild,Kenya,Meadowbrook Grove
FARM0367,North India,Wheat,42.31,6.79,27.53,276.71,88.71,5.19,Sprinkler,Organic,23.05,2024-02-20,2024-06-05,106,2597,SENS0367,2024-04-07,31.455083,79.768152,0.31,Severe,Dehradun,Meadowbrook Hollow
FARM0368,South USA,Cotton,14.15,6.93,18.81,265.48,79.11,5.73,None,Inorganic,10.86,2024-01-20,2024-05-02,103,5980.83,SENS0368,2024-02-25,32.845635,-95.50853,0.41,Mild,Oklahoma,Meadowbrook Meadow
FARM0369,North India,Maize,44.16,5.97,24.02,112.08,69.15,7.88,Drip,Organic,26.1,2024-02-23,2024-06-17,115,4747.41,SENS0369,2024-05-24,31.491674,80.828859,0.66,None,Dehradun,Meadowbrook Ranch
FARM0370,North India,Soybean,12.06,6.17,19.7,277.06,89.84,9.64,Drip,Organic,16.41,2024-03-13,2024-06-30,109,5910.1,SENS0370,2024-06-06,29.897679,76.470579,0.64,Mild,Chandigarh,Meadowbrook Ridge
FARM0371,Central USA,Rice,27.63,7.36,32.56,82.98,55.87,7.18,Sprinkler,Inorganic,10.26,2024-01-05,2024-05-05,121,5486.72,SENS0371,2024-04-20,40.407859,-105.902487,0.56,Moderate,Oklahoma,Nightfall Acres
FARM0372,East Africa,Maize,28.09,6.37,18.3,234.22,64.56,9.7,None,Organic,13.5,2024-01-08,2024-04-18,101,2143.45,SENS0372,2024-02-10,1.118034,35.67263,0.37,Severe,Kenya,Nightfall Farm
FARM0373,North India,Cotton,22.48,6.92,24.7,173.25,82.29,9.2,Drip,Inorganic,9.21,2024-02-06,2024-06-28,143,2673.18,SENS0373,2024-06-15,31.599992,77.360772,0.7,Mild,Chandigarh,Nightfall Farms
FARM0374,East Africa,Wheat,28.41,6.64,23.33,69.21,78.41,8.06,Manual,Organic,17.79,2024-03-04,2024-06-27,115,3494.23,SENS0374,2024-03-17,-4.7267,37.381515,0.35,Severe,Tanzania,Nightfall Field
FARM0375,South USA,Maize,30.8,5.51,34.4,214.04,87.54,5.95,Sprinkler,Organic,43.85,2024-03-10,2024-06-28,110,5192.59,SENS0375,2024-06-13,33.496144,-94.828539,0.53,Severe,Arkansas,Nightfall Fields
FARM0376,Central USA,Rice,18.4,7.04,22.98,55.13,50.41,6.33,None,Inorganic,34.12,2024-03-05,2024-06-10,97,3194.19,SENS0376,2024-04-29,39.315593,-104.730933,0.84,Mild,Oklahoma,Nightfall Grove
FARM0377,Central USA,Wheat,39.12,6.53,24.79,271.35,63.82,7.38,None,Organic,39.04,2024-02-20,2024-05-31,101,3736.42,SENS0377,2024-04-14,43.84601,-98.323005,0.88,Mild,Minnesota,Nightfall Hollow
FARM0378,South India,Cotton,28.45,6.79,16.68,167.05,43.96,8.81,Manual,Organic,49.29,2024-03-10,2024-07-31,143,2994.61,SENS0378,2024-06-27,11.761274,79.145934,0.35,None,Bangalore,Nightfall Meadow
FARM0379,East Africa,Wheat,27.87,6.33,24.29,230.08,80.64,6.13,Drip,Mixed,5.73,2024-03-22,2024-07-19,119,2718.21,SENS0379,2024-04-14,-1.49404,35.853148,0.55,Moderate,Kenya,Nightfall Ranch
FARM0380,Central USA,Soybean,35.34,7.01,24,251.96,57.07,9.51,Sprinkler,Organic,13.33,2024-03-20,2024-07-04,106,5486.46,SENS0380,2024-04-02,46.893638,-112.401226,0.54,None,Oregon,Nightfall Ridge
FARM0381,South India,Cotton,26.11,6.31,28.15,236.06,76.3,5.82,Manual,Mixed,35.32,2024-03-22,2024-07-15,115,5218.56,SENS0381,2024-04-02,11.003804,79.4693,0.37,None,Bangalore,Orchard Acres
FARM0382,South India,Wheat,17.32,6.8,27.99,158.95,71.3,8.74,Sprinkler,Organic,18.54,2024-02-05,2024-06-04,120,3687.52,SENS0382,2024-02-19,11.114146,77.732269,0.72,Severe,Bangalore,Orchard Farm
FARM0383,South USA,Wheat,40.09,6.67,19.03,192.36,81.69,4.31,Drip,Organic,33.37,2024-03-14,2024-07-08,116,5394.47,SENS0383,2024-06-16,32.641451,-93.71273,0.9,None,Louisiana,Orchard Farms
FARM0384,South USA,Cotton,27.01,6.68,27.23,219.67,80.83,6.93,Drip,Mixed,5.86,2024-03-11,2024-07-14,125,2254.04,SENS0384,2024-07-03,32.135154,-94.344744,0.37,Moderate,Louisiana,Orchard Field
FARM0385,South USA,Cotton,10.73,6.08,18.84,135.96,51.61,5.32,Manual,Mixed,43.41,2024-03-22,2024-07-19,119,2524.63,SENS0385,2024-04-28,33.156838,-94.508458,0.55,Moderate,Arkansas,Orchard Fields
FARM0386,South USA,Rice,31.76,6.06,29.99,216.76,46.45,5.2,None,Organic,40.71,2024-02-10,2024-05-25,105,2837.73,SENS0386,2024-02-16,34.482299,-94.68874,0.46,Mild,Arkansas,Orchard Grove
FARM0387,South India,Soybean,11.12,5.63,23.61,204.39,46.03,5.34,Manual,Inorganic,40.32,2024-01-25,2024-06-19,146,4228.09,SENS0387,2024-03-03,13.260777,77.328341,0.66,None,Bangalore,Orchard Hollow
FARM0388,North India,Cotton,37.96,7.43,30.12,293.66,79.08,7.66,Drip,Mixed,6.89,2024-01-06,2024-05-15,130,2472.24,SENS0388,2024-02-27,31.631283,78.239925,0.48,Severe,Dehradun,Orchard Meadow
FARM0389,East Africa,Cotton,35.64,5.7,27.94,133.65,46.89,9.09,None,Inorganic,39.61,2024-01-08,2024-05-30,143,5236.58,SENS0389,2024-04-04,0.670182,37.289197,0.46,Severe,Kenya,Orchard Ranch
FARM0390,Central USA,Rice,15.31,7.01,23.43,107.05,80.09,6.48,None,Inorganic,47.83,2024-03-26,2024-08-06,133,3447.1,SENS0390,2024-04-02,43.808164,-95.227678,0.73,None,Minnesota,Orchard Ridge
FARM0391,North India,Maize,21.02,7.46,18.29,65.37,77.96,7.96,Sprinkler,Mixed,7.6,2024-03-23,2024-08-11,141,4641.45,SENS0391,2024-08-03,29.892946,77.686093,0.83,Moderate,Dehradun,Pinecrest Acres
FARM0392,Central USA,Maize,10.28,6.06,25.56,280.11,75.01,6.68,Sprinkler,Mixed,33.1,2024-03-21,2024-07-17,118,4789.88,SENS0392,2024-07-12,44.064686,-109.267591,0.77,Moderate,Oregon,Pinecrest Farm
FARM0393,North India,Wheat,28.81,6.28,29.38,269.97,66.02,7.24,Sprinkler,Organic,28.03,2024-02-17,2024-06-07,111,5028.19,SENS0393,2024-03-08,28.199543,75.618346,0.62,Moderate,Jaipur,Pinecrest Farms
FARM0394,South India,Maize,35.43,7.47,17.21,64.99,58.65,7.76,Manual,Organic,7.15,2024-03-04,2024-06-30,118,3191.84,SENS0394,2024-06-06,11.827883,78.359519,0.44,Mild,Bangalore,Pinecrest Field
FARM0395,Central USA,Maize,19.96,7.07,29.3,218.11,75.72,7.12,Sprinkler,Organic,19.75,2024-03-07,2024-07-27,142,5114.2,SENS0395,2024-07-01,37.410444,-95.372602,0.8,None,Oklahoma,Pinecrest Fields
FARM0396,North India,Wheat,24.87,5.76,19.3,69.52,73.84,6.42,None,Inorganic,31.29,2024-03-14,2024-07-10,118,4756.07,SENS0396,2024-05-15,28.345817,78.668822,0.4,Mild,Delhi,Pinecrest Grove
FARM0397,South USA,Cotton,14.53,6.91,32.27,79.51,50.63,6.84,Sprinkler,Mixed,21.62,2024-01-20,2024-06-12,144,3634.48,SENS0397,2024-02-19,33.757604,-90.831711,0.61,None,Mississippi,Pinecrest Hollow
FARM0398,Central USA,Maize,44.69,6.11,24.72,247.8,47.11,7.54,Drip,Inorganic,45.01,2024-01-06,2024-05-27,142,4958.64,SENS0398,2024-01-06,36.974351,-105.162049,0.82,Severe,Oklahoma,Pinecrest Meadow
FARM0399,South USA,Soybean,20.84,6.4,21.76,144.33,81.72,9,Sprinkler,Organic,27.71,2024-02-25,2024-06-22,118,4668.88,SENS0399,2024-03-15,31.607714,-88.755275,0.78,Severe,Mississippi,Pinecrest Ranch
FARM0400,South USA,Rice,41.51,6.18,15.92,217.61,62.15,5.66,Drip,Organic,36.82,2024-03-21,2024-08-08,140,5086.38,SENS0400,2024-06-08,31.558711,-94.241148,0.64,Mild,Louisiana,Pinecrest Ridge
FARM0401,East Africa,Soybean,30.19,5.61,26.4,97.35,63.79,9.38,Drip,Mixed,47.13,2024-01-01,2024-04-17,107,5147.03,SENS0401,2024-02-01,-1.798514,35.607559,0.65,None,Kenya,Redstone Acres
FARM0402,East Africa,Soybean,21.22,6.68,24.83,283.46,57,5.08,Drip,Mixed,19.28,2024-02-03,2024-05-10,97,5919.14,SENS0402,2024-04-12,0.137102,36.597911,0.45,None,Kenya,Redstone Farm
FARM0403,South India,Maize,43.33,6.86,16.18,290.28,49.07,8.28,Manual,Inorganic,9.44,2024-01-14,2024-06-09,147,3296.87,SENS0403,2024-04-19,14.343114,78.755939,0.33,Mild,Bangalore,Redstone Farms
FARM0404,East Africa,Soybean,18.28,6.52,25.09,287.34,53.46,5.91,None,Organic,26.79,2024-02-21,2024-06-04,104,5654.94,SENS0404,2024-02-23,-1.386557,37.087238,0.71,Mild,Kenya,Redstone Field
FARM0405,East Africa,Rice,20.66,6.31,16.68,208.95,50.17,9.81,Manual,Mixed,49.34,2024-01-18,2024-06-16,150,3695.01,SENS0405,2024-06-08,-1.296921,36.605145,0.58,Moderate,Kenya,Redstone Fields
FARM0406,South India,Wheat,12.11,7.34,20.47,112.72,74,10,Sprinkler,Mixed,42.83,2024-02-02,2024-05-12,100,4956.73,SENS0406,2024-04-14,14.051051,78.172487,0.72,Mild,Bangalore,Redstone Grove
FARM0407,East Africa,Maize,40.74,5.92,25.1,250.51,84.2,9.67,Manual,Mixed,25.37,2024-01-22,2024-05-11,110,3366.52,SENS0407,2024-03-20,1.309583,35.321298,0.85,Mild,Kenya,Redstone Hollow
FARM0408,North India,Soybean,26.68,7.3,28.45,153.29,84.76,8.22,None,Mixed,8.65,2024-03-21,2024-06-23,94,4154.6,SENS0408,2024-06-14,29.390975,81.687664,0.88,Severe,Lucknow,Redstone Meadow
FARM0409,East Africa,Maize,23.54,7.18,31.24,295.95,46.24,6.22,Sprinkler,Inorganic,5.42,2024-03-01,2024-07-17,138,3124.54,SENS0409,2024-05-31,-1.906542,37.035256,0.68,Mild,Kenya,Redstone Ranch
FARM0410,South India,Cotton,43.86,5.57,24.86,226.01,70.3,4.04,None,Organic,44.15,2024-03-17,2024-07-16,121,2681.91,SENS0410,2024-04-10,13.345208,78.623453,0.71,Mild,Bangalore,Redstone Ridge
FARM0411,North India,Soybean,14.49,5.63,20.19,192.48,51.4,7.14,Manual,Organic,43.15,2024-01-23,2024-06-04,133,4131.77,SENS0411,2024-03-27,31.176176,75.69778,0.3,Severe,Chandigarh,Silverleaf Acres
FARM0412,North India,Maize,25.14,7.49,20.48,220.04,63.33,6.17,Drip,Mixed,15.1,2024-02-14,2024-06-17,124,3795.45,SENS0412,2024-02-14,28.566026,77.678553,0.83,None,Delhi,Silverleaf Farm
FARM0413,South India,Cotton,43.52,7.33,18.94,132.31,43.14,7.75,Drip,Inorganic,24.44,2024-01-19,2024-06-08,141,4505.19,SENS0413,2024-04-13,11.144648,77.023565,0.58,Moderate,Bangalore,Silverleaf Farms
FARM0414,North India,Maize,28.19,5.97,16.46,199.99,61.93,4.57,None,Mixed,10.62,2024-01-02,2024-04-25,114,3253.12,SENS0414,2024-04-19,30.082402,77.495388,0.34,Severe,Dehradun,Silverleaf Field
FARM0415,North India,Maize,31.38,6.36,17.04,63.95,42.61,9.1,None,Organic,32.78,2024-02-08,2024-07-02,145,4398.3,SENS0415,2024-02-10,30.670885,76.699185,0.56,None,Chandigarh,Silverleaf Fields
FARM0416,Central USA,Wheat,25.89,6.16,18.85,75.67,69.76,4.41,Sprinkler,Mixed,10.67,2024-03-09,2024-06-29,112,3684.03,SENS0416,2024-06-09,46.967017,-119.471106,0.38,None,Oregon,Silverleaf Grove
FARM0417,North India,Rice,20.91,6.37,34.19,238.59,55.56,9.31,Sprinkler,Organic,26.13,2024-03-11,2024-06-27,108,3475.32,SENS0417,2024-03-12,28.471625,81.44186,0.39,Mild,Lucknow,Silverleaf Hollow
FARM0418,East Africa,Soybean,40.05,6.34,18.91,100.09,85.43,8.71,Manual,Organic,35.05,2024-03-23,2024-07-20,119,4399.05,SENS0418,2024-05-04,-4.092129,36.153416,0.5,Moderate,Tanzania,Silverleaf Meadow
FARM0419,South USA,Maize,15.68,6.41,30.78,60.55,50.97,4.02,Sprinkler,Mixed,15.36,2024-03-07,2024-06-20,105,3922.98,SENS0419,2024-06-13,33.507434,-96.589059,0.74,Mild,Oklahoma,Silverleaf Ranch
FARM0420,South USA,Rice,38.91,5.51,15.2,139.47,67.73,4.85,None,Organic,33.41,2024-02-02,2024-05-03,91,2796.49,SENS0420,2024-03-09,32.421984,-91.914321,0.73,Moderate,Louisiana,Silverleaf Ridge
FARM0421,East Africa,Rice,16.25,5.54,31.86,277.66,41.05,8.06,None,Mixed,40.43,2024-01-11,2024-06-08,149,2840.95,SENS0421,2024-05-06,-2.931922,37.942159,0.7,Severe,Kenya,Trillium Acres
FARM0422,North India,Wheat,15.06,7.35,30.9,97.92,58.91,6.25,None,Mixed,16,2024-01-25,2024-06-02,129,4349.3,SENS0422,2024-04-09,28.080664,79.972159,0.33,Moderate,Lucknow,Trillium Farm
FARM0423,South India,Soybean,43.89,7.27,19.18,70.35,63.53,7.98,Drip,Organic,27.89,2024-03-25,2024-07-25,122,3497.06,SENS0423,2024-05-30,14.32329,76.279008,0.52,Severe,Bangalore,Trillium Farms
FARM0424,South USA,Cotton,19.39,6.3,33.42,196,41.83,5.32,Sprinkler,Inorganic,43.84,2024-02-07,2024-05-26,109,3700.09,SENS0424,2024-03-26,31.476116,-93.38478,0.52,None,Louisiana,Trillium Field
FARM0425,South India,Wheat,20.33,6.54,19.6,60.29,65.61,6.02,None,Inorganic,24.46,2024-02-26,2024-06-26,121,3268.08,SENS0425,2024-04-14,13.80282,77.794082,0.46,None,Bangalore,Trillium Fields
FARM0426,Central USA,Wheat,20.31,6.5,25.93,69.54,53.82,5.37,Drip,Organic,21.21,2024-03-07,2024-06-26,111,2786.59,SENS0426,2024-04-18,47.02005,-104.431006,0.76,Moderate,Minnesota,Trillium Grove
FARM0427,South India,Soybean,44.93,7.5,30.05,234.96,85.62,4.05,Manual,Inorganic,42,2024-02-13,2024-07-04,142,4319.82,SENS0427,2024-02-16,11.717361,76.367933,0.76,Mild,Bangalore,Trillium Hollow
FARM0428,South USA,Rice,17.94,7,24.49,178.96,79.3,8.55,None,Inorganic,40.64,2024-02-28,2024-06-09,102,3715.17,SENS0428,2024-05-27,34.228756,-96.077509,0.81,None,Oklahoma,Trillium Meadow
FARM0429,Central USA,Rice,30.21,5.76,33.87,52.42,80.52,9.01,Manual,Organic,23.86,2024-03-25,2024-07-18,115,5051.37,SENS0429,2024-06-21,43.876405,-101.287337,0.31,None,Minnesota,Trillium Ranch
FARM0430,South India,Rice,44.2,7.49,26.36,249.79,85.69,7.44,None,Inorganic,14.19,2024-02-03,2024-06-06,124,3545.74,SENS0430,2024-04-03,15.144888,77.429092,0.57,Moderate,Bangalore,Trillium Ridge
FARM0431,North India,Rice,13.65,6.61,15.64,222.26,64.43,5.12,Drip,Inorganic,17.77,2024-01-10,2024-05-21,132,4097.58,SENS0431,2024-05-05,28.549399,80.148358,0.4,Severe,Lucknow,Upland Acres
FARM0432,South USA,Rice,44.64,5.76,23.37,235.79,59.45,9.42,Sprinkler,Organic,44.17,2024-02-14,2024-07-05,142,4838.69,SENS0432,2024-06-14,32.303389,-94.175037,0.49,Mild,Louisiana,Upland Farm
FARM0433,East Africa,Cotton,19.64,5.51,17.85,65.99,59.96,8.85,Manual,Mixed,44.57,2024-02-15,2024-06-20,126,2156.34,SENS0433,2024-02-26,1.499132,36.007356,0.57,Moderate,Kenya,Upland Farms
FARM0434,South USA,Soybean,38.82,7.2,23.3,94.89,70.89,6.59,None,Mixed,13.25,2024-03-04,2024-06-27,115,4794.58,SENS0434,2024-03-09,34.19307,-92.786594,0.46,Moderate,Arkansas,Upland Field
FARM0435,North India,Rice,41.81,6.32,30.24,80.31,58.44,8.53,Manual,Inorganic,25.29,2024-02-07,2024-06-08,122,2178.54,SENS0435,2024-02-10,32.48779,80.459407,0.75,Severe,Dehradun,Upland Fields
FARM0436,Central USA,Cotton,39.95,6.29,15.21,78.67,85.86,5.96,None,Inorganic,25.76,2024-01-18,2024-05-29,132,2969.17,SENS0436,2024-05-09,38.551367,-95.008788,0.8,Mild,Oklahoma,Upland Grove
FARM0437,North India,Soybean,13.52,6.09,25.69,147.71,43.88,8.58,Manual,Organic,24.83,2024-01-07,2024-05-21,135,2137.78,SENS0437,2024-03-02,28.572956,77.360301,0.68,None,Delhi,Upland Hollow
FARM0438,South USA,Maize,25.54,6.7,15.97,144.35,50.09,5.5,Sprinkler,Organic,9.11,2024-02-01,2024-05-01,90,3348.47,SENS0438,2024-02-25,33.28401,-93.965947,0.88,None,Arkansas,Upland Meadow
FARM0439,South India,Rice,11.54,6.53,31.31,130.67,71.34,7.75,None,Inorganic,10.44,2024-01-04,2024-04-25,112,3293.47,SENS0439,2024-01-05,14.865666,78.586937,0.53,Severe,Bangalore,Upland Ranch
FARM0440,South India,Wheat,33.03,6.06,27.48,60.98,84.27,6.47,None,Organic,37.06,2024-03-06,2024-06-20,106,5836.14,SENS0440,2024-05-21,13.839978,76.038559,0.53,Mild,Bangalore,Upland Ridge
FARM0441,Central USA,Rice,32.24,7.27,21.36,262.89,64.11,6.01,None,Inorganic,28,2024-03-08,2024-07-08,122,4349.87,SENS0441,2024-03-09,42.016468,-113.693335,0.84,Moderate,Oregon,Verona Acres
FARM0442,South India,Cotton,36.5,6.74,16.2,143.63,54.83,4.91,Sprinkler,Mixed,6.71,2024-03-20,2024-08-17,150,3774.9,SENS0442,2024-06-12,11.130885,78.15727,0.77,None,Bangalore,Verona Farm
FARM0443,East Africa,Cotton,32.68,6.08,15.47,261.73,56.56,5.45,Drip,Mixed,49.48,2024-03-23,2024-08-06,136,2889.78,SENS0443,2024-06-28,-3.965223,37.877667,0.68,None,Tanzania,Verona Farms
FARM0444,South USA,Wheat,43.38,5.6,34.84,284.57,46.28,5.04,Sprinkler,Organic,27.83,2024-02-24,2024-06-22,119,3245.85,SENS0444,2024-05-26,32.547279,-96.18153,0.66,Moderate,Texas,Verona Field
FARM0445,Central USA,Soybean,25.69,6.77,20.44,245.32,44,9.84,None,Inorganic,12.55,2024-02-14,2024-06-15,122,4437.58,SENS0445,2024-04-09,39.912796,-103.529939,0.78,None,Oklahoma,Verona Fields
FARM0446,South USA,Cotton,39.89,7.02,33.43,198.8,47.64,8.36,Manual,Inorganic,25.86,2024-02-10,2024-06-03,114,4248.57,SENS0446,2024-04-11,32.571834,-88.215818,0.58,Mild,Mississippi,Verona Grove
FARM0447,South India,Wheat,10.45,6.5,29.51,172.86,86.28,9.64,Manual,Inorganic,27.03,2024-03-19,2024-06-21,94,3635.15,SENS0447,2024-03-23,12.178794,78.281379,0.86,Mild,Bangalore,Verona Hollow
FARM0448,South India,Cotton,43.5,7.04,30.03,137.14,75.46,7.81,Manual,Mixed,7.6,2024-02-14,2024-06-30,137,2987.17,SENS0448,2024-06-15,14.242264,78.459718,0.68,None,Bangalore,Verona Meadow
FARM0449,South India,Maize,31.19,7.39,17.95,111.85,68.92,7.98,Sprinkler,Organic,10.25,2024-01-21,2024-06-04,135,5667.53,SENS0449,2024-05-01,13.306807,77.480091,0.35,Mild,Bangalore,Verona Ranch
FARM0450,South USA,Rice,39.04,6.01,21.04,291.92,72.92,6.3,Manual,Mixed,23.52,2024-03-28,2024-07-01,95,2437.1,SENS0450,2024-06-09,32.398263,-90.305538,0.39,Mild,Mississippi,Verona Ridge
FARM0451,South USA,Maize,10.22,5.84,24.83,74.22,78.69,6.51,None,Mixed,17.98,2024-02-06,2024-05-17,101,3498.61,SENS0451,2024-05-06,31.073986,-88.672669,0.6,None,Mississippi,Windy Acres
FARM0452,South USA,Soybean,38.5,5.87,16.18,95.68,77.96,5.56,None,Inorganic,33.21,2024-03-04,2024-07-27,145,4545.73,SENS0452,2024-03-24,32.575281,-96.453777,0.47,Moderate,Texas,Windy Farm
FARM0453,North India,Soybean,18.22,6.47,30.21,52.38,53.3,9.73,Drip,Organic,14.5,2024-01-13,2024-05-20,128,4080.3,SENS0453,2024-03-21,30.151062,80.865568,0.5,Severe,Dehradun,Windy Farms
FARM0454,Central USA,Maize,33.87,6.19,21.3,109.9,58.06,6.39,Drip,Inorganic,44.29,2024-01-01,2024-04-29,119,5482.17,SENS0454,2024-02-21,41.126156,-103.39535,0.38,None,Oklahoma,Windy Field
FARM0455,East Africa,Maize,43.29,7,19.97,162.98,74.31,9.22,None,Mixed,13.46,2024-03-27,2024-07-15,110,2066.52,SENS0455,2024-05-12,-0.615624,37.043388,0.74,Severe,Kenya,Windy Fields
FARM0456,South India,Soybean,26.96,6.98,30.88,137.08,86.95,9.65,None,Mixed,43.57,2024-01-24,2024-05-17,114,3175.45,SENS0456,2024-02-17,13.886243,78.146247,0.83,None,Bangalore,Windy Grove
FARM0457,South India,Cotton,37.89,6.1,28.46,187.19,83.74,5.01,None,Organic,26.7,2024-03-08,2024-06-21,105,2846.56,SENS0457,2024-06-12,15.379788,77.526983,0.36,None,Hyderabad,Windy Hollow
FARM0458,South India,Maize,41.59,7.03,19.41,114.41,63.82,9.39,Drip,Mixed,11.11,2024-03-21,2024-08-04,136,3967.84,SENS0458,2024-06-14,11.678474,79.112822,0.76,None,Bangalore,Windy Meadow
FARM0459,Central USA,Cotton,41.86,6.99,29.5,213.48,79.25,9.8,None,Organic,15.06,2024-01-10,2024-04-14,95,2445.53,SENS0459,2024-02-22,40.436042,-109.97865,0.75,None,Oregon,Windy Ranch
FARM0460,East Africa,Maize,14.46,6.13,22.6,234.23,55.54,7.54,Sprinkler,Inorganic,49.09,2024-02-25,2024-06-17,113,5190.07,SENS0460,2024-06-05,1.229647,35.15907,0.65,None,Uganda,Windy Ridge
FARM0461,South USA,Wheat,28.84,6.42,17.89,285.72,81.86,7,None,Organic,32.07,2024-01-24,2024-06-04,132,5396.51,SENS0461,2024-02-01,34.129317,-95.626232,0.89,None,Oklahoma,Yellowstone Acres
FARM0462,Central USA,Soybean,26.74,7.16,24.9,226.04,58.84,9.89,Manual,Organic,42.25,2024-01-28,2024-06-12,136,5737.73,SENS0462,2024-03-25,47.862935,-96.111154,0.82,Mild,Minnesota,Yellowstone Farm
FARM0463,South USA,Cotton,20.47,7.13,33.25,89.8,41.08,6.35,None,Mixed,26.3,2024-02-25,2024-06-19,115,3564.25,SENS0463,2024-05-02,31.649065,-91.59895,0.85,Severe,Louisiana,Yellowstone Farms
FARM0464,North India,Rice,21.32,7.08,32.32,63.53,86.73,5.82,Sprinkler,Mixed,11.19,2024-03-16,2024-07-02,108,5588.87,SENS0464,2024-04-11,28.200289,77.792951,0.74,None,Delhi,Yellowstone Field
FARM0465,Central USA,Soybean,13.57,7.07,32.17,144.14,89.14,8.08,Sprinkler,Organic,9.32,2024-02-06,2024-07-05,150,2209.89,SENS0465,2024-06-16,45.313825,-93.451633,0.88,Severe,Minnesota,Yellowstone Fields
FARM0466,South India,Wheat,14.16,6.29,21.05,199.04,48.62,8.47,Drip,Inorganic,43.92,2024-03-13,2024-06-28,107,4529.33,SENS0466,2024-05-08,12.646945,78.426876,0.35,Severe,Bangalore,Yellowstone Grove
FARM0467,East Africa,Rice,10.81,6.65,26.45,118.43,77.27,8.77,Sprinkler,Inorganic,26.79,2024-03-23,2024-07-18,117,3193.45,SENS0467,2024-04-08,1.105573,37.212806,0.85,Mild,Kenya,Yellowstone Hollow
FARM0468,South USA,Wheat,23.78,7.13,30.67,182.52,43.2,9.02,Drip,Organic,48.46,2024-01-06,2024-05-30,145,4396.41,SENS0468,2024-02-21,34.57592,-89.334085,0.49,None,Mississippi,Yellowstone Meadow
FARM0469,South India,Soybean,17.22,5.82,26.25,262.86,41.75,9.88,Manual,Inorganic,48.48,2024-01-14,2024-06-12,150,4632.64,SENS0469,2024-03-17,15.109209,79.836488,0.61,Moderate,Hyderabad,Yellowstone Ranch
FARM0470,East Africa,Cotton,14.89,6.48,21.26,277.7,89.84,7.64,Sprinkler,Mixed,9.46,2024-01-08,2024-04-09,92,2752.29,SENS0470,2024-02-15,-4.485654,35.545275,0.38,Mild,Tanzania,Yellowstone Ridge
FARM0471,East Africa,Maize,19.71,6.96,23.44,187.46,53.03,7.9,Sprinkler,Inorganic,25.52,2024-02-22,2024-06-18,117,5760.8,SENS0471,2024-03-11,-0.710535,37.783724,0.74,Mild,Kenya,Zephyr Acres
FARM0472,Central USA,Soybean,33.01,7.14,27.1,154.92,47.67,9.95,None,Inorganic,6.17,2024-03-08,2024-06-10,94,3080.5,SENS0472,2024-05-15,37.323994,-117.561824,0.34,None,Oregon,Zephyr Farm
FARM0473,Central USA,Maize,37.23,5.79,30.96,118.41,44.9,9.88,Sprinkler,Inorganic,47.83,2024-01-06,2024-05-08,123,4913.31,SENS0473,2024-02-14,46.479268,-108.062328,0.36,Moderate,Oregon,Zephyr Farms
FARM0474,East Africa,Maize,29.3,6.71,32.93,92.69,87.33,6.34,Manual,Mixed,35.5,2024-03-18,2024-07-24,128,5528.08,SENS0474,2024-06-29,-0.690535,35.16734,0.31,Mild,Kenya,Zephyr Field
FARM0475,South India,Rice,23.26,6.97,16.06,231.35,88.72,8.25,Sprinkler,Mixed,32.39,2024-03-15,2024-06-24,101,3755.84,SENS0475,2024-04-29,13.763069,79.295252,0.47,Severe,Bangalore,Zephyr Fields
FARM0476,East Africa,Rice,20.68,7.22,33.95,151.63,55.64,4.54,Drip,Organic,37.85,2024-01-06,2024-05-11,126,2229.65,SENS0476,2024-04-10,-1.131877,35.620226,0.79,None,Kenya,Zephyr Grove
FARM0477,South USA,Soybean,42.64,5.77,24.96,221.28,73.84,7.19,Drip,Inorganic,5.63,2024-01-27,2024-06-12,137,2029.16,SENS0477,2024-05-14,34.005002,-95.710544,0.45,None,Oklahoma,Zephyr Hollow
FARM0478,East Africa,Cotton,43.76,6.85,32.64,180.88,51.25,4.45,Sprinkler,Mixed,20.9,2024-01-14,2024-05-14,121,3516.38,SENS0478,2024-03-01,0.547272,35.894919,0.71,None,Kenya,Zephyr Meadow
FARM0479,Central USA,Maize,26.91,6.03,15.04,207.79,59.68,9.54,Drip,Inorganic,45.16,2024-02-02,2024-05-24,112,2023.56,SENS0479,2024-03-31,47.371529,-106.374469,0.3,Mild,Minnesota,Zephyr Ranch
FARM0480,South USA,Maize,10.31,6.36,18.95,182.27,84.93,6.46,None,Organic,12,2024-03-09,2024-06-21,104,3882.79,SENS0480,2024-04-25,34.348781,-90.431985,0.41,Moderate,Mississippi,Zephyr Ridge
FARM0481,North India,Cotton,32.97,6.38,17.8,236.77,40.29,9.3,Sprinkler,Organic,13.53,2024-01-05,2024-04-29,115,3684.22,SENS0481,2024-02-16,29.29138,78.36011,0.42,Severe,Dehradun,Briarwood Acres
FARM0482,Central USA,Wheat,24.74,6.6,31,228.58,56.24,8.59,None,Mixed,37.67,2024-03-27,2024-08-16,142,3555.39,SENS0482,2024-04-24,36.739673,-99.495499,0.38,Moderate,Oklahoma,Briarwood Farm
FARM0483,East Africa,Wheat,36.86,5.97,28.57,135.54,88.82,8.42,None,Inorganic,18.03,2024-02-03,2024-06-20,138,3715.81,SENS0483,2024-03-13,-0.179014,37.023999,0.47,None,Kenya,Briarwood Farms
FARM0484,Central USA,Rice,33.32,6.36,24.48,245.68,45.15,8.38,Sprinkler,Organic,49.66,2024-03-21,2024-07-29,130,2594.9,SENS0484,2024-04-20,38.836491,-107.479955,0.89,Mild,Oklahoma,Briarwood Field
FARM0485,South USA,Wheat,31.58,5.68,16.02,151.82,55.32,7.8,Sprinkler,Organic,20.13,2024-02-02,2024-06-03,122,3708.29,SENS0485,2024-02-08,32.282478,-95.395743,0.47,Moderate,Louisiana,Briarwood Fields
FARM0486,South USA,Rice,21.19,5.6,15.82,63.03,77.24,5.27,None,Inorganic,45.88,2024-01-14,2024-04-24,101,3009.05,SENS0486,2024-03-16,34.833859,-95.353791,0.36,None,Oklahoma,Briarwood Grove
FARM0487,East Africa,Rice,21.59,6.98,22.23,244.7,66.44,6.23,Manual,Organic,31.29,2024-01-04,2024-04-11,98,4518.23,SENS0487,2024-03-21,-1.384461,36.866104,0.85,Mild,Kenya,Briarwood Hollow
FARM0488,South India,Cotton,42.39,5.65,25.93,135.72,76.27,9.94,Sprinkler,Mixed,37.43,2024-01-05,2024-04-16,102,3672.85,SENS0488,2024-04-05,15.817074,77.549563,0.81,Moderate,Hyderabad,Briarwood Meadow
FARM0489,Central USA,Cotton,32.05,5.73,23.72,170.71,66.19,9.71,Drip,Organic,31.96,2024-03-05,2024-06-21,108,2181.78,SENS0489,2024-05-16,36.579943,-117.766731,0.41,Severe,Oregon,Briarwood Ranch
FARM0490,South USA,Soybean,40.46,7.44,18.31,237.68,59.21,8.68,None,Mixed,17.22,2024-01-01,2024-04-10,100,4287.59,SENS0490,2024-03-16,32.032094,-96.403623,0.77,Severe,Texas,Briarwood Ridge
FARM0491,East Africa,Soybean,19.06,7.2,20.93,117.13,45.96,5.34,Sprinkler,Inorganic,6.76,2024-01-09,2024-06-06,149,2531.89,SENS0491,2024-01-22,-3.175098,37.873735,0.79,None,Kenya,Crestline Acres
FARM0492,North India,Maize,32.14,7.44,21.49,286.61,84.2,5.58,Sprinkler,Inorganic,45.43,2024-02-11,2024-05-14,93,4503.82,SENS0492,2024-02-12,28.783143,79.284221,0.88,Mild,Dehradun,Crestline Farm
FARM0493,Central USA,Wheat,28.81,7.46,30.56,245.13,45.32,8.47,None,Mixed,16.58,2024-03-21,2024-07-27,128,4203.51,SENS0493,2024-07-12,45.510363,-111.177643,0.65,Severe,Oregon,Crestline Farms
FARM0494,South India,Cotton,18.11,6.95,22.37,275.54,44.68,5.09,Sprinkler,Organic,13.5,2024-02-24,2024-06-04,101,4590.26,SENS0494,2024-02-26,13.347267,78.698612,0.79,Mild,Bangalore,Crestline Field
FARM0495,North India,Rice,12.52,5.99,33.18,292.6,45.01,7.16,Drip,Mixed,9.49,2024-02-01,2024-05-08,97,5306.25,SENS0495,2024-05-08,30.901998,76.963248,0.38,None,Chandigarh,Crestline Fields
FARM0496,Central USA,Rice,42.85,6.7,30.85,52.35,79.58,7.25,Manual,Mixed,8.82,2024-01-16,2024-06-02,138,4251.4,SENS0496,2024-05-08,46.654198,-101.788795,0.59,Mild,Minnesota,Crestline Grove
FARM0497,North India,Soybean,34.22,6.75,17.46,256.23,45.14,5.78,None,Organic,5.05,2024-01-01,2024-04-14,104,3708.54,SENS0497,2024-01-19,29.890537,78.934036,0.85,Severe,Dehradun,Crestline Hollow
FARM0498,North India,Cotton,15.93,5.72,17.03,288.96,57.87,7.69,Drip,Inorganic,46.55,2024-01-02,2024-05-09,128,2604.41,SENS0498,2024-04-20,29.090435,80.719602,0.71,Mild,Lucknow,Crestline Meadow
FARM0499,Central USA,Soybean,38.61,6.2,17.08,279.06,73.09,9.6,Drip,Organic,43.78,2024-01-25,2024-06-04,131,2586.36,SENS0499,2024-03-02,36.999336,-94.163815,0.77,Severe,Arkansas,Crestline Ranch
FARM0500,North India,Wheat,30.22,7.42,20.57,72.61,89.74,5.09,None,Inorganic,19.37,2024-02-16,2024-06-29,134,5891.4,SENS0500,2024-05-11,28.366058,81.473723,0.85,Severe,Lucknow,Crestline Ridge