farm_id,region,crop_type,soil_moisture_%,soil_pH,temperature_C,rainfall_mm,humidity_%,sunlight_hours,irrigation_type,fertilizer_type,pesticide_usage_ml,sowing_date,harvest_date,total_days,yield_kg_per_hectare,sensor_id,timestamp,latitude,longitude,NDVI_index,crop_disease_status,location,name
FARM0001,North India,Wheat,30.369285961320003,6.536057193490249,24.66597221376191,148.28397004274936,66.42693605293327,7.065970778593188,None,Organic,122.0967260975793,2024-01-08,2024-05-09,122,4408.07,SENS0001,2024-03-19,30.492804,77.321728,0.5535668321440698,Mild,Chandigarh,Autumn Acres
FARM0002,South USA,Soybean,32.30754024043759,6.527467061269863,26.639533992646225,168.01794693090812,70.98636577977027,7.174682323760828,Sprinkler,Inorganic,160.63097223652858,2024-02-04,2024-05-26,112,5389.98,SENS0002,2024-04-21,32.860297,-94.055091,0.5866603535236513,None,Arkansas,Autumn Farm
FARM0003,South USA,Wheat,19.089052677691903,6.276386388490813,25.3049768187161,132.70644591784975,59.55566524677642,6.8134132365948545,Drip,Mixed,112.65137027294722,2024-02-03,2024-06-26,144,2931.16,SENS0003,2024-02-28,31.009527,-91.053578,0.4249473611167111,Moderate,Louisiana,Autumn Farms
FARM0004,Central USA,Maize,21.156207539575487,6.65167149708543,26.075403583544546,161.27424469011146,64.71860989013531,5.016074703236789,Sprinkler,Organic,105.12947426431647,2024-02-21,2024-07-04,134,4227.8,SENS0004,2024-05-14,44.231602,-95.40851,0.566939773050506,Mild,Minnesota,Autumn Field
FARM0005,Central USA,Cotton,19.331912183443222,6.621554859376298,26.592469080516324,139.07145153700316,74.97507370609432,6.2980727287252485,None,Mixed,136.9376139186645,2024-02-05,2024-05-20,105,4979.96,SENS0005,2024-04-13,44.545954,-118.820344,0.49921320147635345,Mild,Oregon,Autumn Fields
FARM0006,Central USA,Rice,24.563700111204042,6.612823994186241,26.74380552901566,187.02335612660806,68.82433900653278,5.8553630264903145,Sprinkler,Mixed,150.09552228486695,2024-01-13,2024-05-06,114,4383.55,SENS0006,2024-03-12,36.200458,-112.768556,0.47071662370694245,Mild,Oregon,Autumn Grove
FARM0007,North India,Soybean,33.85613565740893,6.693824246715439,21.782421943257322,159.60681527122955,73.84168441049215,4.857655719613987,Manual,Mixed,124.45854227479971,2024-03-04,2024-07-27,145,4501.2,SENS0007,2024-07-11,29.699955,77.887356,0.5542387387783658,Mild,Dehradun,Autumn Hollow
FARM0008,East Africa,Maize,30.497869517707883,6.582277333794863,27.534493260291274,153.67584789448404,70.89800599397766,7.371211548843327,Sprinkler,Mixed,145.58520061635224,2024-01-24,2024-05-24,121,5264.09,SENS0008,2024-04-30,-0.312688,35.212741,0.6099843714823291,None,Kenya,Autumn Meadow
FARM0009,Central USA,Soybean,28.653330203746712,6.8512013975470305,32.32755776929402,219.7099558230607,77.00090993424804,6.610529470221927,Manual,Inorganic,152.1823943446155,2024-03-12,2024-07-08,118,5598.46,SENS0009,2024-05-08,40.007175,-118.993378,0.6591213539816411,None,Oregon,Autumn Ranch
FARM0010,East Africa,Rice,29.325958790328542,6.685670451760215,27.09639186394761,187.622275503611,63.711546812054756,6.957349567764737,Sprinkler,Inorganic,117.6388882407553,2024-01-18,2024-04-25,98,4893.41,SENS0010,2024-03-31,-3.403335,36.272046,0.5452693484761497,Mild,Tanzania,Autumn Ridge
FARM0011,South India,Wheat,14.881831873707434,6.049213892593608,21.738768171270397,77.62175219648287,44.91918818446848,6.836546393934343,Drip,Organic,103.20180043531114,2024-02-26,2024-07-20,145,2437.08,SENS0011,2024-04-15,13.347731,78.332307,0.38091110672386436,Severe,Bangalore,Birch Acres
FARM0012,South USA,Rice,23.80024926566545,6.776919184003187,25.903893855383366,192.12121615963076,71.33181219044953,5.706562318784428,Drip,Organic,97.70745981139322,2024-01-06,2024-05-01,116,3942.56,SENS0012,2024-02-02,32.8318,-92.667568,0.5296561773841981,Mild,Louisiana,Birch Farm
FARM0013,South USA,Maize,28.397878803992842,6.516080290684077,28.728364477219706,189.715782096247,67.71232550415006,6.170109869881835,None,Organic,124.56314713623436,2024-01-02,2024-05-08,127,4942.95,SENS0013,2024-01-17,34.980051,-95.865343,0.5962849264264296,Mild,Oklahoma,Birch Farms
FARM0014,North India,Soybean,26.773531413362804,6.2451746826939365,22.274962469736497,164.9838473755685,69.69783069868855,6.38783992413069,Sprinkler,Mixed,145.27909467212967,2024-03-03,2024-06-27,116,4629.49,SENS0014,2024-05-14,29.22563,81.414586,0.6173170614131801,Mild,Lucknow,Birch Field
FARM0015,South India,Maize,23.35241245630873,6.140241036504182,19.122843343442003,159.60542582483316,52.82616828335671,6.08807226077416,None,Mixed,107.26131776519857,2024-01-03,2024-05-06,124,2852.62,SENS0015,2024-02-05,12.355149,79.269315,0.4027752898497569,Moderate,Bangalore,Birch Fields
FARM0016,Central USA,Maize,31.90159437499044,6.515828168974921,29.087869267348722,197.98988481785813,67.62970783612482,6.483449686725237,Drip,Mixed,141.83729701707236,2024-02-22,2024-05-28,96,5755.72,SENS0016,2024-03-10,45.483349,-94.112012,0.6330651377443065,None,Minnesota,Birch Grove
FARM0017,Central USA,Maize,24.625287033246384,6.4211962504410955,22.082939988031473,131.45024046431712,55.317498205921595,5.201373228845868,Drip,Organic,115.98830572382857,2024-02-02,2024-05-02,90,3334.23,SENS0017,2024-02-18,44.8224,-105.41256,0.4470468085717967,Moderate,Minnesota,Birch Hollow
FARM0018,East Africa,Wheat,28.722945996253962,6.662282255501236,31.241589801281226,176.90296842154706,81.62808381026647,7.608241915610892,Sprinkler,Inorganic,145.1448990769311,2024-02-12,2024-07-08,147,5732.35,SENS0018,2024-02-22,-2.292487,35.720914,0.6256977552469372,None,Kenya,Birch Meadow
FARM0019,Central USA,Soybean,33.45054944871598,6.648524977352544,27.967840734907263,207.72453515880946,75.40088696692465,7.128613010209275,Sprinkler,Inorganic,146.095642040957,2024-03-11,2024-07-29,140,5723.26,SENS0019,2024-05-13,44.93006,-93.310075,0.7166356117698937,None,Minnesota,Birch Ranch
FARM0020,South USA,Rice,27.746724797497865,6.5436871663949665,19.793384750214948,145.8644288427937,43.73951579113857,4.247677309090509,Sprinkler,Inorganic,120.22189069661857,2024-01-25,2024-05-11,107,3404.58,SENS0020,2024-03-30,34.192463,-92.340349,0.4333011230894641,Moderate,Arkansas,Birch Ridge
FARM0021,North India,Maize,27.42009990749945,6.767870639730554,25.795564957845556,190.34611699564542,69.15438573687429,5.941808010339677,Manual,Inorganic,133.0769519891546,2024-03-04,2024-06-26,114,5598.02,SENS0021,2024-03-28,28.515582,78.002462,0.6506733358163476,None,Delhi,Cedar Acres
FARM0022,Central USA,Cotton,24.911442305429187,6.65975442185034,21.109728756096892,149.55931069760646,77.62511509407872,7.437044495564978,Manual,Mixed,132.19042780989827,2024-02-11,2024-06-05,115,4788.83,SENS0022,2024-04-21,46.97527,-97.733804,0.543189400956989,Mild,Minnesota,Cedar Farm
FARM0023,East Africa,Soybean,28.52989048795646,6.564060846928079,24.23333484980653,149.6672774466201,57.54849692504183,6.209730420004534,Manual,Inorganic,113.16739573638115,2024-03-07,2024-07-07,122,3892.74,SENS0023,2024-06-30,1.035867,36.292994,0.5468031913035745,Mild,Kenya,Cedar Farms
FARM0024,East Africa,Soybean,27.971621217567133,6.756188927762409,26.83926498150393,174.8474291883389,54.48795551316536,5.998310824921773,Drip,Organic,112.17138868043159,2024-02-20,2024-07-13,144,5073.96,SENS0024,2024-06-15,-1.833547,37.873996,0.5986431212261294,Mild,Kenya,Cedar Field
FARM0025,South USA,Cotton,22.971663769715967,5.844416816401373,20.25119932638389,69.86463898301719,60.7717413849904,4.944743178962956,None,Organic,78.11406182708384,2024-03-17,2024-07-14,119,2200.87,SENS0025,2024-04-17,31.181626,-96.756835,0.2913895966973335,Severe,Texas,Cedar Fields
FARM0026,East Africa,Soybean,26.99036171182965,6.551536181328591,29.23148860775085,138.08945757319185,71.41268526370195,6.5069609980870995,None,Organic,158.45395651973539,2024-02-15,2024-05-31,106,5007.11,SENS0026,2024-05-06,-1.485018,37.15799,0.5819323879007745,Mild,Kenya,Cedar Grove
FARM0027,Central USA,Cotton,28.093180210901636,6.016259617680461,26.602066849339327,154.58916058591552,56.965996952489405,6.32421987450954,Sprinkler,Inorganic,120.04704538818127,2024-03-07,2024-06-09,94,3659.47,SENS0027,2024-04-18,36.46479,-95.871354,0.4884567637403526,Mild,Oklahoma,Cedar Hollow
FARM0028,South USA,Soybean,28.478883821959673,6.622877974292433,26.58698963550235,108.08598991028265,63.56892859051215,5.511879579330345,Manual,Inorganic,114.02609415092408,2024-02-18,2024-07-04,137,4938.54,SENS0028,2024-04-14,31.786522,-89.172565,0.6108049943645034,Mild,Mississippi,Cedar Meadow
FARM0029,Central USA,Cotton,21.326559090759808,6.332268628834821,17.950533053041113,121.7743078299694,58.680208750125594,4.744116496049438,Drip,Organic,76.87811115583659,2024-01-28,2024-05-26,119,2726.92,SENS0029,2024-03-01,42.269183,-109.620465,0.3871928092035511,Severe,Oregon,Cedar Ranch
FARM0030,Central USA,Cotton,34.203540347495895,6.878208440551168,29.05292958753838,171.86832067480074,65.224888763389,6.8674769707772985,Drip,Mixed,138.60977976952904,2024-01-08,2024-04-19,102,5356.92,SENS0030,2024-03-27,44.331237,-98.422092,0.6568226386249795,None,Minnesota,Cedar Ridge
FARM0031,South USA,Maize,29.361310062862824,6.941775184614049,29.514858891514237,223.55582638596277,78.93103796200259,6.747109017932485,Manual,Organic,167.92759472602623,2024-02-19,2024-07-01,133,5632.1,SENS0031,2024-05-25,32.48429,-93.572311,0.7704810248993832,None,Louisiana,Delta Acres
FARM0032,North India,Maize,15.425062962469099,6.287371106534622,21.399051421716376,87.02651414798291,50.292225500557734,5.387565815382294,None,Mixed,86.81655960403259,2024-03-21,2024-07-10,111,2050.61,SENS0032,2024-05-13,28.588618,75.948257,0.2771321266880884,Severe,Delhi,Delta Farm
FARM0033,South India,Cotton,28.333750182024083,6.575406889749713,29.88761125243445,201.58292640211602,71.07165909062975,5.841261242764653,None,Inorganic,160.6624859285514,2024-03-09,2024-06-27,110,5406.85,SENS0033,2024-06-23,11.927186,76.309792,0.6147711477296975,None,Bangalore,Delta Farms
FARM0034,East Africa,Soybean,23.19681507772865,6.478525218476619,20.695227073202442,116.37575316254947,54.69823008894764,5.77596205725981,Manual,Inorganic,111.05812107837642,2024-03-23,2024-08-16,146,3105.07,SENS0034,2024-03-25,-4.410741,35.394213,0.36450576036158316,Moderate,Tanzania,Delta Field
FARM0035,South USA,Soybean,18.406158497328132,6.32329531180525,27.832158093538823,138.61947169117616,54.9820951707401,6.479623890644682,Sprinkler,Inorganic,118.53421758010195,2024-02-22,2024-06-28,127,3476.08,SENS0035,2024-05-20,32.883831,-91.198026,0.47390204254486507,Moderate,Mississippi,Delta Fields
FARM0036,Central USA,Maize,28.02077069494212,6.541284894223408,23.77386823558423,176.73359817541692,69.53619681544237,6.507026681052811,Sprinkler,Organic,104.95180330188084,2024-02-09,2024-06-24,136,4358.35,SENS0036,2024-06-22,47.556963,-117.984557,0.5896993542457072,Mild,Oregon,Delta Grove
FARM0037,South India,Maize,16.626836154358188,6.443845392412581,22.275414671408843,87.75973289597113,40.428900389709995,5.083850733914827,Sprinkler,Mixed,103.65701930869773,2024-02-04,2024-06-28,145,2049.06,SENS0037,2024-04-16,14.538262,78.443204,0.29159713033359874,Severe,Bangalore,Delta Hollow
FARM0038,Central USA,Cotton,27.18929431465166,6.341415343269027,20.841464818955153,165.50779460584238,46.138236777090476,5.744759928071466,Manual,Organic,109.33237293692527,2024-01-18,2024-06-04,138,3664.7,SENS0038,2024-03-15,43.80171,-96.234432,0.4203678661254027,Mild,Minnesota,Delta Meadow
FARM0039,East Africa,Cotton,18.413398021167332,6.6834924379435785,23.51208246037787,129.6288950913535,65.49343873198481,5.505031033440261,Sprinkler,Inorganic,135.62919201557298,2024-01-08,2024-04-18,101,4207.97,SENS0039,2024-01-28,1.719265,36.434557,0.47666130729150047,Mild,Kenya,Delta Ranch
FARM0040,North India,Rice,28.092203312915384,6.839926547672007,31.440175192343105,198.25407585066867,75.32246957292581,6.7673860810263315,Sprinkler,Inorganic,132.3210031422338,2024-01-21,2024-04-29,99,5633.65,SENS0040,2024-02-08,29.574182,80.6948,0.6960866585380718,None,Lucknow,Delta Ridge
FARM0041,South USA,Wheat,14.260861127087388,6.096051595853449,20.928366341991858,130.46798492561902,52.00221922916175,6.0298339341347384,Drip,Inorganic,97.0969353262023,2024-03-09,2024-06-08,91,2365.31,SENS0041,2024-06-03,31.586466,-95.437739,0.3667706759838629,Severe,Louisiana,Evergreen Acres
FARM0042,East Africa,Wheat,21.16052924410145,6.6437494872632294,25.829356237261415,156.29506961870817,60.13253387371289,5.712562691858909,None,Mixed,119.15652370343437,2024-01-16,2024-05-07,112,3633.39,SENS0042,2024-02-26,-4.833245,37.65068,0.486334242711059,Mild,Tanzania,Evergreen Farm
FARM0043,Central USA,Cotton,26.21111484692192,6.657267661959117,25.766483992185425,201.42200049534844,58.69245163882735,5.4473547789953765,None,Mixed,119.79602739753992,2024-01-22,2024-06-15,145,4170.37,SENS0043,2024-05-06,35.886347,-110.509426,0.4807680289434181,Mild,Texas,Evergreen Farms
FARM0044,South USA,Wheat,23.09666733165917,6.469173197774848,23.936550693004925,120.67162112729673,62.781073346715544,5.450579119065495,Sprinkler,Mixed,119.9227403323303,2024-03-01,2024-07-04,125,3631.96,SENS0044,2024-03-29,33.9172,-88.976286,0.47063848239358896,Moderate,Mississippi,Evergreen Field
FARM0045,South India,Cotton,27.48311072251099,6.469156936995283,29.754727793212275,139.84559443644804,66.16757997142828,6.627081722496406,None,Mixed,130.59863930421002,2024-01-20,2024-05-21,122,4985.17,SENS0045,2024-02-06,13.558203,79.493759,0.6031315933376874,Mild,Bangalore,Evergreen Fields
FARM0046,Central USA,Soybean,27.9915680190337,6.458250895028907,26.694883996429876,151.16004203642615,63.52845034064152,6.25890859694949,Sprinkler,Inorganic,125.87515555366326,2024-02-11,2024-06-15,125,5051.49,SENS0046,2024-03-30,39.515082,-97.121108,0.6150081088316671,Mild,Oklahoma,Evergreen Grove
FARM0047,East Africa,Cotton,31.830606408666185,6.625734047874634,25.32629983912703,213.16437681475858,70.25764418782491,7.272778551165152,None,Mixed,172.07423833253804,2024-03-05,2024-07-04,121,5859.3,SENS0047,2024-03-21,0.788049,36.750119,0.7301846895016002,None,Kenya,Evergreen Hollow
FARM0048,North India,Soybean,26.65454991901327,6.784024819339989,26.31861859412321,197.54925869305387,83.50479398111601,7.068014339250709,Manual,Inorganic,156.7950041972133,2024-02-21,2024-05-26,95,5407.06,SENS0048,2024-05-17,28.327574,80.428618,0.6515845187840118,None,Lucknow,Evergreen Meadow
FARM0049,East Africa,Wheat,29.65138051455537,6.403781151214404,27.68415320231477,171.537653430122,52.9168306093984,7.001912965061986,Drip,Mixed,119.97577098763932,2024-01-15,2024-04-24,100,4776.0,SENS0049,2024-01-18,-1.42246,35.668988,0.6098706259093412,Mild,Kenya,Evergreen Ranch
FARM0050,South USA,Rice,23.227283072761782,6.446475643284174,23.440571438728348,93.72071248436174,55.97708705328125,6.432384404826323,None,Mixed,111.60344781114318,2024-02-19,2024-05-28,99,2928.75,SENS0050,2024-05-10,31.186441,-91.438194,0.3905575083226045,Moderate,Louisiana,Evergreen Ridge
FARM0051,Central USA,Soybean,25.81419377207712,6.238864392690902,21.652808473972133,166.61478202654266,47.56438692485162,6.645963100926975,Manual,Inorganic,107.32567699547238,2024-01-13,2024-06-05,144,3932.83,SENS0051,2024-03-13,36.103078,-102.3136,0.5042283687077637,Mild,Oklahoma,Fern Acres
FARM0052,North India,Cotton,24.545522006913888,6.379533346061984,22.223766010346157,103.45179314868722,54.994209989059385,5.0274209068954425,None,Inorganic,92.67137789903558,2024-01-20,2024-06-09,141,3409.28,SENS0052,2024-03-08,30.251896,81.415954,0.46784206165173,Moderate,Dehradun,Fern Farm
FARM0053,North India,Wheat,25.801562532161025,6.518641120779866,23.78175013267991,178.31605353243532,56.789224663390776,5.354372166856866,None,Organic,135.11253000479235,2024-03-12,2024-07-13,123,4007.18,SENS0053,2024-04-15,31.689106,79.679831,0.42451146489926805,Mild,Dehradun,Fern Farms
FARM0054,Central USA,Maize,31.491323010353465,7.003504895342793,24.510375250621713,224.3317338446986,46.17700812756138,6.004875431802162,None,Mixed,96.1759695750101,2024-02-01,2024-05-17,106,4146.29,SENS0054,2024-03-30,35.869056,-104.375462,0.4955995322469428,Mild,Oklahoma,Fern Field
FARM0055,Central USA,Wheat,23.377219891302335,6.173480709063171,21.39723682558431,148.95004669773778,60.00026794195607,5.47995261060139,Drip,Mixed,127.7760995237175,2024-03-10,2024-07-19,131,3633.18,SENS0055,2024-04-14,41.52129,-118.096683,0.4356364394191562,Mild,Oregon,Fern Fields
FARM0056,North India,Rice,18.503849488716366,6.58534413118753,20.258944748586103,122.7659469693443,46.18993185209482,4.366936162685355,None,Mixed,91.12211145814456,2024-01-14,2024-05-24,131,2396.09,SENS0056,2024-05-18,32.208879,81.809762,0.3008090818994358,Severe,Dehradun,Fern Grove
FARM0057,South India,Cotton,27.368725235721367,6.703567531927213,26.43609651497688,172.39831560356228,54.564171555658305,6.385211940597929,Manual,Organic,137.65868684936282,2024-01-04,2024-06-02,150,5392.13,SENS0057,2024-04-29,14.592369,77.759396,0.6251221267424709,None,Bangalore,Fern Hollow
FARM0058,North India,Maize,23.098692864786095,6.627064916472678,27.290242067348593,113.71077354672663,68.26793838845897,5.8471630779446135,Sprinkler,Organic,131.52593223868757,2024-01-26,2024-06-21,147,4383.93,SENS0058,2024-04-05,32.392766,77.226083,0.610611491857308,Mild,Chandigarh,Fern Meadow
FARM0059,South India,Wheat,15.890962915649089,6.322083768119603,23.258479046013186,94.61485301263681,59.29379980282717,4.723363323935004,Sprinkler,Inorganic,104.52768443294921,2024-03-14,2024-07-15,123,2454.6,SENS0059,2024-03-22,12.424736,78.245435,0.29543979256890734,Severe,Bangalore,Fern Ranch
FARM0060,South USA,Soybean,16.88050214263654,6.3844538917263955,21.300187885278177,81.77932459000098,59.52465856073459,4.96098147204089,Drip,Organic,83.0658757180482,2024-02-14,2024-06-26,133,2431.85,SENS0060,2024-06-06,32.115097,-95.13205,0.3848207401994529,Severe,Louisiana,Fern Ridge
FARM0061,South India,Maize,26.73185191864352,6.542158969012586,25.43085357300837,128.40408356662263,66.40048121175977,7.116499554762792,None,Organic,139.51340291744975,2024-01-28,2024-06-07,131,4603.67,SENS0061,2024-03-23,13.694452,77.431034,0.47417330332720176,Mild,Bangalore,Golden Acres
FARM0062,South USA,Cotton,20.394504544690633,6.580495754761398,21.774610598576658,150.99614224387238,49.105645288434786,5.298209502754091,None,Organic,96.46284428676705,2024-01-03,2024-04-29,117,2386.26,SENS0062,2024-04-06,33.885464,-93.463468,0.3150043232766359,Severe,Arkansas,Golden Farm
FARM0063,North India,Cotton,27.1766085617065,6.484575110631932,24.63133877637011,171.99543084601947,73.34346111837061,8.03374371114633,Manual,Inorganic,110.26349884420449,2024-03-07,2024-06-14,99,4626.95,SENS0063,2024-04-04,30.085591,81.547399,0.5688331248367509,Mild,Lucknow,Golden Farms
FARM0064,Central USA,Soybean,18.237351761179195,6.558970324190913,19.915059331582828,125.99687146636208,62.84460028431735,5.449449369234005,Drip,Mixed,97.3546919169114,2024-03-09,2024-06-08,91,2721.66,SENS0064,2024-06-06,35.533423,-100.540342,0.3953298443720139,Severe,Oklahoma,Golden Field
FARM0065,South India,Soybean,30.607328385810817,6.480130626973056,24.936291765742897,164.07525107322573,73.74853030763123,6.232970162306563,None,Inorganic,153.79967135526306,2024-01-12,2024-04-30,109,4886.38,SENS0065,2024-04-20,15.510232,77.401266,0.6227645698021705,Mild,Hyderabad,Golden Fields
FARM0066,South India,Soybean,29.534055221893084,6.574792775906877,25.17775942517599,163.04685197634092,58.040871194371874,6.350265598606943,Sprinkler,Mixed,155.57009939614153,2024-02-04,2024-05-22,108,4712.87,SENS0066,2024-04-19,11.565393,78.829134,0.6091418779097035,Mild,Bangalore,Golden Grove
FARM0067,East Africa,Wheat,24.85280003615252,6.298047925482653,22.880392999427066,176.60185424412265,62.072903889341596,6.229306128673263,Drip,Inorganic,132.25307917701372,2024-01-05,2024-04-28,114,4130.33,SENS0067,2024-02-03,-0.172909,36.026876,0.4925160951401352,Mild,Kenya,Golden Hollow
FARM0068,South USA,Wheat,27.034201423958688,6.740740363742734,27.819712779346265,179.13869596726576,71.06251272594565,6.903620248712667,None,Inorganic,120.11312203826213,2024-01-11,2024-04-20,100,5205.29,SENS0068,2024-03-30,31.644306,-91.748203,0.5966709061053562,Mild,Louisiana,Golden Meadow
FARM0069,North India,Rice,22.362989592478044,6.62843916000988,23.78299749131032,131.15014217553315,38.76809287755668,6.811353802599613,Sprinkler,Organic,108.08877977178722,2024-01-17,2024-05-18,122,2775.61,SENS0069,2024-04-25,30.384074,76.964361,0.414429968962517,Severe,Chandigarh,Golden Ranch
FARM0070,South India,Wheat,31.23029084375727,6.69701764208454,25.367284699215364,187.5976681636168,74.61826477994333,6.258231186710545,None,Inorganic,158.2615789237332,2024-03-15,2024-07-26,133,5696.62,SENS0070,2024-06-05,13.795495,76.479907,0.6604258861948878,None,Bangalore,Golden Ridge
FARM0071,South USA,Cotton,25.50586684920772,6.642507183788701,28.081662814590107,177.8230424375953,85.61144003676145,7.328869534842345,Drip,Organic,152.7117385733187,2024-02-03,2024-06-13,131,5457.0,SENS0071,2024-02-26,34.367153,-92.041042,0.5817231426566898,None,Arkansas,Harbor Acres
FARM0072,South USA,Soybean,21.24725941267517,6.143996614159979,22.342128522360067,88.21114721466633,57.38195352186231,5.613105445424144,Manual,Mixed,115.8047151431465,2024-03-06,2024-06-06,92,2990.97,SENS0072,2024-05-01,34.273374,-92.841421,0.3368716447186774,Moderate,Arkansas,Harbor Farm
FARM0073,Central USA,Maize,28.722002564121407,6.564237536585724,27.51795182601002,122.57548690005876,76.18568182588882,5.340615849385307,Manual,Organic,138.66047426425516,2024-02-10,2024-05-26,106,4894.93,SENS0073,2024-05-04,37.407002,-100.624237,0.5421042395368673,Mild,Oklahoma,Harbor Farms
FARM0074,East Africa,Rice,26.455475393260436,6.337237138782833,27.570722309245134,174.62015061876767,69.58952261634833,7.162673110374889,Drip,Inorganic,137.6093338047985,2024-03-26,2024-07-15,111,5252.74,SENS0074,2024-06-19,1.811275,35.549768,0.6494948297843991,None,Kenya,Harbor Field
FARM0075,South USA,Soybean,20.023477284481306,6.109447419130071,18.626518381367347,109.81702059459812,48.3953659440512,6.055428558458079,Sprinkler,Organic,85.91724953830011,2024-02-28,2024-07-17,140,2404.56,SENS0075,2024-07-15,33.558616,-94.691151,0.3407396999825975,Severe,Arkansas,Harbor Fields
FARM0076,East Africa,Rice,26.920856601852485,6.781056861382797,26.403548938301828,164.98667951447413,75.23954784581855,6.342775125999678,None,Organic,119.81492548179389,2024-03-24,2024-07-07,105,5878.35,SENS0076,2024-06-10,-1.926005,36.669629,0.723083989432164,None,Kenya,Harbor Grove
FARM0077,Central USA,Cotton,33.000656683306666,6.91350632892091,27.55390864071379,179.0788662486603,62.273410230649276,6.592561049966143,None,Mixed,143.05906922541593,2024-01-27,2024-05-08,102,5205.04,SENS0077,2024-02-13,37.260159,-104.17858,0.5984003191812778,Mild,Oklahoma,Harbor Hollow
FARM0078,East Africa,Wheat,33.87174744715638,7.254138328195078,30.262497771977323,189.80304526459818,63.50936867331546,5.561436640391321,Sprinkler,Inorganic,145.8663313686842,2024-01-27,2024-05-24,118,5538.52,SENS0078,2024-01-30,-1.623055,37.426488,0.6617639093131783,None,Kenya,Harbor Meadow
FARM0079,North India,Maize,19.20935751088814,6.193942089753208,17.42594370403714,58.35162120199329,58.797950927779624,4.36387190529052,Drip,Inorganic,105.7147304544589,2024-02-23,2024-07-15,143,2555.17,SENS0079,2024-06-22,32.276874,77.980425,0.38028680511227797,Severe,Chandigarh,Harbor Ranch
FARM0080,South India,Rice,20.676697403147813,6.5840475709402355,22.30791215312228,86.51939143524194,58.779065179326814,5.921570862776666,Drip,Organic,75.57534935394428,2024-03-15,2024-06-17,94,2443.43,SENS0080,2024-05-17,12.686828,77.233014,0.32212270470290594,Severe,Bangalore,Harbor Ridge
FARM0081,South India,Maize,24.310932447052785,6.794026683997295,31.467180475858044,209.2368349267798,66.14365247979336,6.654613197462657,Manual,Organic,159.10839288976175,2024-03-17,2024-08-04,140,5953.33,SENS0081,2024-03-22,13.792077,78.664916,0.7190597122114429,None,Bangalore,Ivy Acres
FARM0082,Central USA,Wheat,23.36419243304387,6.53849679866972,25.83972038123749,173.42573383869262,70.44246245955678,5.498823229619353,Manual,Organic,159.06773578159107,2024-03-11,2024-07-31,142,4571.18,SENS0082,2024-07-07,36.247143,-108.410003,0.5219007653618634,Mild,Texas,Ivy Farm
FARM0083,North India,Cotton,19.798223003748614,6.424502381502918,23.400129844681004,88.7548253215435,50.75039969916786,5.512556219751651,None,Mixed,101.73477090059117,2024-01-25,2024-06-04,131,2764.41,SENS0083,2024-04-25,31.368235,80.8842,0.3522341005978965,Severe,Dehradun,Ivy Farms
FARM0084,North India,Maize,15.985136886757534,6.294940894899921,19.969821807603214,110.4727208952792,50.781731923509234,4.764541690654,None,Inorganic,92.98193199157338,2024-03-09,2024-07-28,141,2330.45,SENS0084,2024-06-25,32.338731,76.479541,0.3069591838312268,Severe,Chandigarh,Ivy Field
FARM0085,Central USA,Wheat,23.959672267386036,6.402697250853471,22.771569363630032,151.68380178021727,56.85449611503356,5.1928972624812335,Manual,Inorganic,110.30920802900879,2024-02-20,2024-06-16,117,3098.22,SENS0085,2024-05-31,36.764585,-108.615605,0.34470250230536986,Moderate,Oklahoma,Ivy Fields
FARM0086,East Africa,Rice,26.158316653684388,6.237074382238681,18.73718987678395,133.1750269355755,57.293307399751036,5.792492277188494,Manual,Inorganic,128.7339771471369,2024-03-02,2024-07-08,128,2613.75,SENS0086,2024-06-25,-1.065674,37.224825,0.37934143588249125,Severe,Kenya,Ivy Grove
FARM0087,East Africa,Maize,17.469427319766247,6.07035074846726,17.810858056946095,117.61239141005777,52.57757036915062,4.58667737045408,None,Mixed,86.64200522574531,2024-02-23,2024-06-20,118,2858.28,SENS0087,2024-05-11,-0.252959,35.664389,0.35650802733148834,Moderate,Kenya,Ivy Hollow
FARM0088,South India,Wheat,19.519447583979524,6.0799688768544,25.03043022509749,116.03937563865595,63.934809559583755,4.921020020557983,Manual,Mixed,109.69137408396654,2024-01-18,2024-05-21,124,3161.45,SENS0088,2024-02-25,11.073814,79.48427,0.41157983982343743,Moderate,Bangalore,Ivy Meadow
FARM0089,Central USA,Soybean,30.82903157184993,6.822749719165751,26.231689186376205,172.68653639353843,72.41126281215976,6.876258964542229,Manual,Inorganic,131.05722776667596,2024-03-05,2024-07-12,129,5536.99,SENS0089,2024-03-21,45.916923,-103.418916,0.6777179269528997,None,Minnesota,Ivy Ranch
FARM0090,South USA,Soybean,29.967823749436317,6.449702805880512,24.172991374954048,162.70405935227234,64.63824051516164,6.6987581491143615,Sprinkler,Organic,112.40006805504362,2024-01-27,2024-05-03,97,4072.41,SENS0090,2024-03-05,33.49708,-92.227539,0.5263608179196209,Mild,Arkansas,Ivy Ridge
FARM0091,East Africa,Maize,16.741293228635676,6.208597826303343,19.357375597369227,120.44072057548759,44.98399419175004,6.177974635981203,Drip,Mixed,98.59401812992013,2024-03-19,2024-06-26,99,2684.8,SENS0091,2024-06-06,1.873999,36.700296,0.3955217404363008,Severe,Kenya,Juniper Acres
FARM0092,North India,Wheat,31.85617716523387,6.73079120528137,25.998228592777902,211.55311613990284,87.32875067155993,6.4508171154938205,Drip,Inorganic,167.70065821661208,2024-03-10,2024-07-19,131,5826.6,SENS0092,2024-07-11,30.460579,79.396821,0.6783477897239202,None,Dehradun,Juniper Farm
FARM0093,North India,Wheat,33.90294509982128,6.787950771109949,26.801729941924492,179.0897094333935,70.16687155719868,7.172021158951047,Manual,Mixed,162.49057747354988,2024-02-13,2024-05-21,98,5042.66,SENS0093,2024-04-18,29.404755,78.608925,0.5820065408192511,Mild,Dehradun,Juniper Farms
FARM0094,South USA,Rice,23.517251087366763,6.666292608551701,25.71117594416906,196.51306274797028,71.93603904122483,5.971979674356398,Sprinkler,Inorganic,142.34851056297114,2024-03-11,2024-06-21,102,5052.49,SENS0094,2024-05-13,31.515791,-88.716229,0.600189945411817,Mild,Mississippi,Juniper Field
FARM0095,North India,Wheat,18.12575728512921,6.2551251966343075,23.861545062031087,129.6320501164428,42.68062913285262,6.823691278684766,None,Mixed,100.7114212301479,2024-03-22,2024-07-20,120,3142.99,SENS0095,2024-03-23,30.745982,80.797034,0.3247022254720997,Moderate,Dehradun,Juniper Fields
FARM0096,South USA,Maize,18.423856208871086,6.546308942189301,22.58924935561768,129.82728811519416,43.630437894953495,4.41056168644423,None,Mixed,133.51712512671895,2024-03-22,2024-07-29,129,2475.24,SENS0096,2024-04-15,33.489119,-90.54904,0.2684846572264536,Severe,Mississippi,Juniper Grove
FARM0097,South India,Rice,29.20286502111291,7.0320107353342935,29.24459320494868,215.00529620675954,80.1944463347894,7.7946297065060834,None,Organic,139.52751894861333,2024-03-05,2024-06-23,110,5725.47,SENS0097,2024-04-14,11.016002,79.868641,0.6068039271726541,None,Bangalore,Juniper Hollow
FARM0098,East Africa,Maize,31.36852795140419,6.746313484369943,27.933904136946424,159.36726490545408,69.86968600433475,6.130068338448382,Manual,Mixed,129.1212196812486,2024-02-19,2024-06-07,109,5187.02,SENS0098,2024-05-21,1.60577,37.232664,0.5680593812642236,Mild,Kenya,Juniper Meadow
FARM0099,East Africa,Soybean,31.718996698653108,6.919508359988465,31.901797371857892,149.7515303721608,58.591576934578704,8.30837514923481,None,Organic,120.34893325767678,2024-01-02,2024-05-07,126,5792.82,SENS0099,2024-01-16,-3.620941,35.066027,0.6998092375118896,None,Tanzania,Juniper Ranch
FARM0100,South India,Cotton,17.884881693315194,6.681258294571822,21.745917382061215,175.16058044217567,63.68756524736989,6.1453896910329755,Sprinkler,Mixed,132.88532896375824,2024-03-16,2024-07-17,123,3507.3,SENS0100,2024-07-16,13.904361,79.115479,0.4010190833992443,Moderate,Bangalore,Juniper Ridge
FARM0101,Central USA,Soybean,26.15892282709936,6.7114957989707875,24.64806252909224,153.5116554057835,55.41890360632479,5.230692172173784,Manual,Mixed,132.78079616835558,2024-03-16,2024-07-04,110,3919.21,SENS0101,2024-05-26,42.566277,-116.995298,0.4694726208499383,Mild,Oregon,Keystone Acres
FARM0102,East Africa,Soybean,26.52486342398233,6.744975338649373,29.301304694819983,131.5689532579666,76.39417907323555,6.123055077227638,Manual,Mixed,170.92574342896847,2024-02-21,2024-06-06,106,4989.35,SENS0102,2024-03-19,-3.74284,35.879295,0.6626858174707818,Mild,Tanzania,Keystone Farm
FARM0103,South India,Wheat,31.17968905070908,6.708032436910678,29.001796743604423,149.82711806867243,64.09784504954483,6.900278953639424,Drip,Organic,109.76071301621225,2024-03-16,2024-06-20,96,4724.77,SENS0103,2024-04-02,13.622636,78.956803,0.5528772234434896,Mild,Bangalore,Keystone Farms
FARM0104,South USA,Cotton,28.212642608776616,6.795009810347577,25.341100962615464,207.51239644490101,71.62375723831845,7.501161875043999,Sprinkler,Mixed,164.8018855935798,2024-01-06,2024-05-01,116,5528.98,SENS0104,2024-01-28,31.563988,-88.358211,0.6897379349659756,None,Mississippi,Keystone Field
FARM0105,South India,Maize,27.185178793604663,6.434095889199767,26.934679518507867,173.720764043513,76.44273133596428,6.564752782229582,None,Organic,139.47964366859307,2024-02-09,2024-05-21,102,5235.26,SENS0105,2024-03-22,13.998623,79.469095,0.5761698552868473,Mild,Bangalore,Keystone Fields
FARM0106,North India,Maize,22.21681941771964,6.474898053320893,24.962132557550802,104.14914890681716,44.90439837462946,5.370274484470333,None,Mixed,112.26191388587925,2024-02-22,2024-05-28,96,2739.12,SENS0106,2024-03-10,30.816116,80.851487,0.35753085966579984,Severe,Dehradun,Keystone Grove
FARM0107,South India,Cotton,25.888079957080524,6.176310974902304,25.140721029191702,174.51680033334702,50.24867336530185,6.320742199361303,Sprinkler,Organic,88.98019517874664,2024-02-10,2024-05-20,100,3621.67,SENS0107,2024-04-14,14.755245,79.623735,0.41047791255656235,Moderate,Bangalore,Keystone Hollow
FARM0108,Central USA,Maize,30.346409817346967,6.491159298682677,27.891845891421017,153.8336592819424,66.62873450828997,6.6925756577383275,None,Mixed,160.03073010490203,2024-02-25,2024-06-28,124,5207.98,SENS0108,2024-06-09,47.359987,-103.706206,0.6031116979711225,Mild,Minnesota,Keystone Meadow
FARM0109,East Africa,Cotton,20.10820020440994,6.766900219432781,24.667750710983416,131.2836072303619,66.12019391047728,5.119295421947792,Sprinkler,Mixed,132.5402159745171,2024-01-11,2024-06-03,144,4081.37,SENS0109,2024-02-09,-1.848583,37.210502,0.5469651715698007,Mild,Kenya,Keystone Ranch
FARM0110,North India,Cotton,27.568855274019732,6.703847230822651,24.82911811998137,162.44530153296904,52.593363140175526,5.57413097588712,Drip,Inorganic,123.71273327226415,2024-01-24,2024-05-06,103,4313.25,SENS0110,2024-01-29,30.108787,76.661341,0.4422765374674319,Mild,Chandigarh,Keystone Ridge
FARM0111,North India,Cotton,27.467535818019748,7.006371906926283,29.057975609332487,201.53982309916913,59.46467774686221,7.000152956162607,None,Inorganic,154.74376019361006,2024-02-15,2024-07-09,145,5668.46,SENS0111,2024-05-21,30.592754,81.046105,0.6888349813685812,None,Dehradun,Lakeview Acres
FARM0112,Central USA,Wheat,26.02871795648359,6.457773484076997,24.697057763605283,164.83024802140926,66.41182573274413,6.899271134806206,Drip,Inorganic,109.97057378210084,2024-03-18,2024-07-13,117,4127.73,SENS0112,2024-07-01,44.151383,-108.701338,0.5215734687681779,Mild,Oregon,Lakeview Farm
FARM0113,North India,Wheat,25.687523195827918,6.455502475570587,28.014046821676796,209.9713998794119,65.69660481608116,7.874996672217198,Drip,Mixed,133.62266797538746,2024-03-22,2024-08-04,135,5488.85,SENS0113,2024-05-23,29.614935,78.388463,0.6190542972759132,None,Dehradun,Lakeview Farms
FARM0114,North India,Rice,22.426416638820704,6.305191942943114,22.711853784849772,125.62034198847428,49.42931830194105,5.958788123968742,Manual,Organic,95.44185667848086,2024-01-22,2024-05-24,123,2884.17,SENS0114,2024-02-29,28.046818,80.824896,0.3103206131663227,Moderate,Lucknow,Lakeview Field
FARM0115,South USA,Soybean,22.984766360358442,6.535577374696136,23.896708863813352,165.26882152306445,47.81145333297996,6.2617879937175385,None,Inorganic,94.02961590440836,2024-02-06,2024-06-23,138,4151.71,SENS0115,2024-04-07,31.15018,-91.595339,0.5157433675841103,Mild,Louisiana,Lakeview Fields
FARM0116,North India,Soybean,25.527664570576107,6.679881562818914,28.798989073611423,176.33653242730546,63.998281842251465,7.180504998391385,Drip,Inorganic,152.61643575916003,2024-01-18,2024-06-02,136,5317.63,SENS0116,2024-01-31,30.166514,77.28147,0.6047924201875401,None,Chandigarh,Lakeview Grove
FARM0117,South India,Soybean,33.83528796083108,6.977754628928236,35.01213151644577,201.771164216297,73.33468402634972,6.537348537562784,Drip,Organic,167.996128193966,2024-03-04,2024-07-19,137,5998.29,SENS0117,2024-07-04,11.772339,78.765641,0.7124486371092518,None,Bangalore,Lakeview Hollow
FARM0118,South India,Soybean,30.2411316449778,6.597103342997344,24.268650521315063,186.55984010094744,75.54504116325533,6.5701680398113815,None,Inorganic,129.80272911330633,2024-03-16,2024-08-01,138,5358.92,SENS0118,2024-05-07,13.435437,77.535024,0.6365785496745984,None,Bangalore,Lakeview Meadow
FARM0119,South India,Wheat,29.087511295078166,6.792760958082717,29.353926110415497,199.84826613990234,66.46027223487124,6.312524749950895,None,Mixed,151.90553288582814,2024-02-18,2024-06-28,131,5773.86,SENS0119,2024-05-14,11.591153,78.662862,0.7579721955437515,None,Bangalore,Lakeview Ranch
FARM0120,South USA,Rice,23.09054197022354,6.067412273481592,19.565248212237407,122.34103586327163,59.07564368794817,4.186430985978655,Drip,Mixed,87.83341728478302,2024-01-27,2024-06-07,132,2194.06,SENS0120,2024-01-28,34.134269,-94.602587,0.3001423813211593,Severe,Arkansas,Lakeview Ridge
FARM0121,North India,Rice,16.981954075857562,6.338960130880017,21.96974974289274,113.65797710287168,41.815930511874974,5.2290710092303625,None,Organic,94.791710463766,2024-03-14,2024-06-12,90,2066.9,SENS0121,2024-04-18,29.659261,81.292349,0.2479424655859104,Severe,Lucknow,Maple Acres
FARM0122,South India,Wheat,21.485740199566614,6.365224854199146,22.83650068268935,124.02605390490812,47.99719174421139,5.588271891257391,None,Organic,94.33871868127669,2024-02-15,2024-06-20,126,2972.83,SENS0122,2024-05-14,12.434499,76.703166,0.40064629707743,Moderate,Bangalore,Maple Farm
FARM0123,North India,Cotton,31.073053559428814,6.547524077957834,29.81515530833056,169.26919949942157,81.29412929607065,7.271303721615261,None,Mixed,130.447032132454,2024-03-28,2024-07-02,96,5579.16,SENS0123,2024-04-02,30.814947,80.547535,0.6689892306903787,None,Dehradun,Maple Farms
FARM0124,Central USA,Wheat,27.39780703023294,6.612464308788234,30.011516173404296,183.6178176962086,69.99383073178498,7.02079900651753,Manual,Organic,154.93674503714064,2024-03-05,2024-07-21,138,5282.76,SENS0124,2024-06-14,45.148911,-93.287889,0.6956635237405853,None,Minnesota,Maple Field
FARM0125,East Africa,Maize,24.12955984940358,6.377520512042097,23.95743659128873,132.17068764663483,51.56812883532655,5.8272736353072725,Manual,Organic,108.76462058454968,2024-01-27,2024-04-30,94,3362.37,SENS0125,2024-04-14,-3.484334,37.46607,0.47324009137184264,Moderate,Kenya,Maple Fields
FARM0126,Central USA,Cotton,17.593345342463365,6.228232813530989,23.63516856680182,111.2823073750115,47.30147284965093,5.518687023567919,Drip,Mixed,124.20329499061107,2024-01-23,2024-04-26,94,2328.15,SENS0126,2024-02-11,38.188496,-93.86732,0.3436546244762017,Severe,Arkansas,Maple Grove
FARM0127,Central USA,Maize,18.248356927391523,6.647390944480042,16.863449146197738,163.78767188381119,58.438058830874716,5.142612616746789,Sprinkler,Inorganic,95.86937299509277,2024-03-17,2024-07-11,116,2413.17,SENS0127,2024-03-28,43.113143,-93.664128,0.4076633013821826,Severe,Minnesota,Maple Hollow
FARM0128,South USA,Wheat,25.820659689116606,6.357788240902421,26.13886195189866,112.4011688092685,63.728883276792935,5.798933742111668,Sprinkler,Mixed,91.40612235842224,2024-01-09,2024-04-27,109,3073.63,SENS0128,2024-01-27,34.080246,-93.301082,0.34254380037505494,Moderate,Arkansas,Maple Meadow
FARM0129,North India,Maize,20.12976603314244,6.385652935115022,24.65732692295952,147.44365690823207,50.78549612646769,5.22942754672151,Manual,Organic,130.5359720045979,2024-02-27,2024-07-05,129,3519.56,SENS0129,2024-05-21,30.497427,79.791145,0.4155581490829049,Moderate,Dehradun,Maple Ranch
FARM0130,Central USA,Maize,21.961312859129457,6.237996827924894,29.78047036893907,208.20895557049192,68.10227103328211,6.88874222573508,None,Mixed,148.36044479582097,2024-02-13,2024-05-30,107,5265.98,SENS0130,2024-04-03,37.296545,-98.058759,0.5796608184872616,None,Oklahoma,Maple Ridge
FARM0131,East Africa,Wheat,26.351311724582352,6.190602307337104,20.38431147253362,126.33880339908457,53.66809927276635,5.945667490632206,None,Mixed,115.23634628340635,2024-03-10,2024-06-23,105,3010.73,SENS0131,2024-03-29,-4.417873,37.283872,0.37606453202861156,Moderate,Tanzania,Northwind Acres
FARM0132,East Africa,Cotton,27.990155293764623,6.2727167439566145,20.427317384254085,173.51241374888122,43.780662098271044,4.832548715741,Drip,Organic,116.89878164476504,2024-03-22,2024-07-12,112,2665.35,SENS0132,2024-06-08,-0.734573,35.876974,0.29143083570049294,Severe,Kenya,Northwind Farm
FARM0133,Central USA,Cotton,24.87896065470533,6.403883281679171,25.976106870197878,148.75978108961303,61.79974153355669,6.200497736952992,Sprinkler,Inorganic,115.13451362205306,2024-02-25,2024-07-07,133,4354.36,SENS0133,2024-07-02,36.41909,-103.588329,0.5646006008723201,Mild,Oklahoma,Northwind Farms
FARM0134,South USA,Wheat,18.42950405742511,6.747842200398773,24.49093558337862,152.40236690264368,58.51729638173324,5.449480970152298,None,Inorganic,114.67128217200619,2024-02-24,2024-07-07,134,3809.79,SENS0134,2024-03-12,32.866042,-93.200263,0.4660894105236314,Mild,Louisiana,Northwind Field
FARM0135,North India,Rice,25.87024486300592,6.534576074605522,26.69219767076607,143.54258231462856,71.58485993574465,5.9016998311777815,None,Organic,125.53588808985498,2024-03-06,2024-06-15,101,4561.92,SENS0135,2024-04-30,31.238031,79.763331,0.4805105890226795,Mild,Dehradun,Northwind Fields
FARM0136,East Africa,Cotton,18.769864625381743,6.556258855172541,23.811863743674774,100.92588268319581,57.70904214798591,4.406829472664055,Drip,Mixed,76.46720258333261,2024-02-07,2024-06-05,119,2455.82,SENS0136,2024-05-02,-2.970829,36.113888,0.2880770501867354,Severe,Kenya,Northwind Grove
FARM0137,East Africa,Cotton,19.111996148997545,6.312907214512486,18.145664164434496,116.3366053003988,47.05906955561557,6.088307598426236,Manual,Mixed,92.11410227191575,2024-03-05,2024-06-23,110,2471.45,SENS0137,2024-04-13,-0.033627,37.582191,0.35612872253443917,Severe,Kenya,Northwind Hollow
FARM0138,South USA,Soybean,19.021603080510754,6.408511837519677,25.298742647357304,151.3708556047655,53.22586240552691,6.350244703245478,Sprinkler,Mixed,128.1736442963957,2024-02-05,2024-05-16,101,3258.32,SENS0138,2024-04-02,34.900245,-88.248141,0.46275934458300805,Moderate,Mississippi,Northwind Meadow
FARM0139,South India,Rice,30.18307923581856,6.611405553272093,27.16931120015906,183.81033941350782,71.53883773116772,6.892863069217506,None,Inorganic,139.0598526946588,2024-03-01,2024-07-19,140,5044.23,SENS0139,2024-05-14,12.850015,77.568076,0.7031684188362631,Mild,Bangalore,Northwind Ranch
FARM0140,East Africa,Cotton,29.676374409534564,6.617116210962153,26.5317189550486,204.74926336094072,62.10938542486353,7.845965008912116,Drip,Mixed,113.77191535886857,2024-01-14,2024-04-19,96,4943.95,SENS0140,2024-04-06,-2.93099,37.85715,0.7387786918106558,Mild,Kenya,Northwind Ridge
FARM0141,Central USA,Maize,15.489721095092428,6.65524417390561,18.915855752824186,109.92290189431078,54.06635697126251,5.113468705584677,Manual,Mixed,74.04062962050253,2024-02-06,2024-06-14,129,2556.94,SENS0141,2024-03-29,40.783015,-97.108011,0.36990861030031014,Severe,Oklahoma,Oak Acres
FARM0142,East Africa,Soybean,31.98595082933386,6.219391378434101,29.06132273315948,178.35849151089383,69.16137585691389,8.855487785714823,Drip,Organic,166.96926373534546,2024-02-02,2024-05-19,107,5468.19,SENS0142,2024-02-18,-0.364659,35.032129,0.5971739130258826,None,Kenya,Oak Farm
FARM0143,South India,Cotton,36.1863298999433,6.288251161891225,23.314456144253946,255.31168983777687,63.270759864040905,6.59497065236159,Drip,Inorganic,141.27245213964838,2024-02-23,2024-07-21,149,5509.27,SENS0143,2024-06-18,11.482845,77.503754,0.5442459345866033,None,Bangalore,Oak Farms
FARM0144,South USA,Maize,30.204996555815463,6.567207667232688,29.227485246542603,195.0243079248329,62.68037412685104,6.882002680004854,Manual,Inorganic,131.389866927745,2024-03-05,2024-07-09,126,5409.69,SENS0144,2024-06-13,33.932783,-92.661919,0.6540590398723203,None,Arkansas,Oak Field
FARM0145,South USA,Wheat,21.97450166525253,6.427398469567191,20.757336548715294,116.91153998647164,66.10236517513381,5.419527032960561,Sprinkler,Mixed,106.82927070810615,2024-02-03,2024-06-13,131,3441.74,SENS0145,2024-02-24,31.153643,-91.436791,0.3989472597782251,Moderate,Louisiana,Oak Fields
FARM0146,Central USA,Rice,31.11227051313106,6.8832063908160634,29.193340922955965,181.68050711645049,71.98160995870417,7.241369915495258,None,Organic,127.26264438883135,2024-02-27,2024-06-03,97,5952.62,SENS0146,2024-04-21,36.429173,-115.864923,0.6753805416816245,None,Oregon,Oak Grove
FARM0147,North India,Wheat,22.15769735612084,6.418814704176063,21.83161673485363,91.27245505083013,62.106332767718484,5.881719507802644,Sprinkler,Organic,120.25009899114248,2024-01-20,2024-05-30,131,2656.47,SENS0147,2024-04-18,28.621908,75.796011,0.32875297170346424,Severe,Delhi,Oak Hollow
FARM0148,East Africa,Cotton,14.031795712215116,6.206543712251515,23.72895787504825,130.09281286194548,44.85216723246917,5.0538301041733575,None,Inorganic,88.11135331552502,2024-01-09,2024-05-19,131,2336.99,SENS0148,2024-03-21,-3.353933,37.930022,0.3196747715412839,Severe,Kenya,Oak Meadow
FARM0149,South India,Soybean,26.660690556872613,6.747590680446129,25.37238869193516,149.64695603722424,64.37347330380186,7.41883166017344,Sprinkler,Inorganic,145.7648559318095,2024-01-16,2024-05-25,130,4375.72,SENS0149,2024-01-19,13.643157,78.320734,0.5883245649776033,Mild,Bangalore,Oak Ranch
FARM0150,Central USA,Soybean,23.806514290899557,6.705210560853846,23.597914214763662,153.01835793607205,76.70454933970368,6.1640904201366205,Manual,Organic,120.67535334350568,2024-01-26,2024-05-20,115,4026.44,SENS0150,2024-04-15,43.668716,-104.850413,0.5071896125509069,Mild,Oklahoma,Oak Ridge
FARM0151,North India,Soybean,34.98879636623018,6.7035111160303895,26.765120437658872,181.7521930942586,61.488935442081136,6.856137969381446,Sprinkler,Mixed,161.4469255916558,2024-03-21,2024-08-06,138,5338.11,SENS0151,2024-04-06,29.428225,80.103913,0.6254278979689268,None,Dehradun,Prairie Acres
FARM0152,North India,Rice,19.785526129247305,6.5165831768972,24.613293244173185,133.09764267848968,37.33138716202592,4.659908263439724,Sprinkler,Organic,102.73661697362607,2024-01-23,2024-04-22,90,2655.33,SENS0152,2024-03-07,31.522828,76.456913,0.30745864227857467,Severe,Chandigarh,Prairie Farm
FARM0153,Central USA,Rice,31.62896812969027,6.6154780012988645,27.08840974856911,141.02118740038733,72.25674151167405,6.536745146635027,None,Inorganic,140.11236377652884,2024-02-23,2024-06-28,126,4510.13,SENS0153,2024-04-26,42.409468,-96.325628,0.4650250116547334,Mild,Minnesota,Prairie Farms
FARM0154,Central USA,Rice,27.301641318893918,6.59818577260242,27.73677966960364,165.20716843822413,65.43806308672836,6.748110457269435,Drip,Organic,156.0442810464048,2024-02-12,2024-06-05,114,5680.91,SENS0154,2024-03-05,44.035882,-114.639078,0.6440705069135315,None,Oregon,Prairie Field
FARM0155,South India,Maize,20.776874554928938,6.415129507344522,20.786542819146323,110.72066058844406,47.88524956029748,4.676496747641983,Drip,Organic,102.41730273912208,2024-03-02,2024-06-25,115,2275.71,SENS0155,2024-04-30,13.952008,79.060572,0.3177637840947008,Severe,Bangalore,Prairie Fields
FARM0156,East Africa,Cotton,22.373775271279136,6.38770666751219,19.625379868770008,138.14079071678827,48.7297214866498,4.918804086281963,None,Organic,109.08910231731517,2024-03-25,2024-08-12,140,2980.51,SENS0156,2024-03-26,-2.71916,36.716858,0.4808637300761576,Moderate,Kenya,Prairie Grove
FARM0157,Central USA,Wheat,16.736283948563987,6.288146432806835,22.24158945930204,115.88900051862852,50.56399085100388,7.021748219653429,None,Inorganic,91.05265487297874,2024-01-23,2024-05-09,107,2372.11,SENS0157,2024-02-21,38.847858,-101.522313,0.3368164968383943,Severe,Oklahoma,Prairie Hollow
FARM0158,South USA,Wheat,28.15463861162439,6.892932599477174,23.119400001930046,149.43203378041855,58.59114708512694,6.20893346503171,Sprinkler,Organic,160.53254657830396,2024-02-26,2024-06-20,115,4802.9,SENS0158,2024-05-30,32.169953,-93.226572,0.62781048358256,Mild,Louisiana,Prairie Meadow
FARM0159,South India,Soybean,22.945458678892116,5.7963719056068825,22.946031786919235,124.24638731526471,47.35622372161149,4.12629553071271,Sprinkler,Inorganic,80.78150498134941,2024-02-28,2024-06-04,97,2361.68,SENS0159,2024-05-25,13.827974,76.971085,0.3042722851249619,Severe,Bangalore,Prairie Ranch
FARM0160,Central USA,Rice,24.59929364151613,6.237863244257184,25.61391115646749,135.68349248042867,64.29004479464761,5.596845291343589,Sprinkler,Organic,122.63262402983909,2024-02-18,2024-07-04,137,4200.48,SENS0160,2024-03-13,45.303353,-100.239997,0.45787287431042684,Mild,Minnesota,Prairie Ridge
FARM0161,North India,Rice,21.800840793121388,6.332963242498777,30.946859062042016,151.03699943507053,56.69529527734152,6.245411823461252,Manual,Organic,128.66856746095198,2024-01-07,2024-06-02,147,4583.95,SENS0161,2024-02-08,31.701512,76.631267,0.5080460241073017,Mild,Chandigarh,Quail Acres
FARM0162,North India,Cotton,24.09966186652557,6.39556100845966,22.26994785877508,120.04378947663423,53.40411248439459,6.255519474725226,None,Organic,122.2221878569634,2024-01-09,2024-04-25,107,3784.05,SENS0162,2024-01-28,32.344476,79.60411,0.4383092071519495,Mild,Dehradun,Quail Farm
FARM0163,South USA,Cotton,28.84800630664219,6.694901200710034,28.891723062306067,231.69352564894874,70.67887134684973,7.371648903860679,Sprinkler,Mixed,143.05665047117125,2024-03-26,2024-06-25,91,5957.61,SENS0163,2024-06-25,31.935501,-90.68817,0.8030817543523502,None,Mississippi,Quail Farms
FARM0164,South USA,Maize,18.413232577079985,5.990044447685577,25.121735022515892,124.13745397372097,38.878802746559316,5.639668495204313,None,Mixed,99.70234385266616,2024-03-08,2024-06-16,100,2400.54,SENS0164,2024-05-31,33.338328,-88.049064,0.29213832783092963,Severe,Mississippi,Quail Field
FARM0165,South India,Soybean,27.375439065495957,6.40122598258351,29.020405764677403,184.7763522011067,62.28247786951141,5.941628141536567,Manual,Mixed,129.25827190743644,2024-03-01,2024-07-14,135,4802.24,SENS0165,2024-04-06,14.541037,77.125729,0.6205305314233568,Mild,Bangalore,Quail Fields
FARM0166,East Africa,Maize,15.376743222425118,6.158845409437974,20.791138315884993,147.38303455709877,51.81897552026365,5.562363291021832,Manual,Mixed,75.99236165555402,2024-01-11,2024-05-25,135,2709.84,SENS0166,2024-04-02,-3.483284,35.347447,0.3196646372097987,Severe,Tanzania,Quail Grove
FARM0167,North India,Soybean,19.18078755242751,6.955025914804786,24.84028646324036,213.02445048388967,55.25868254966009,5.240922760681027,Manual,Inorganic,115.76821586060565,2024-01-24,2024-06-22,150,3747.47,SENS0167,2024-05-27,29.925244,76.144203,0.5174115277553986,Mild,Chandigarh,Quail Hollow
FARM0168,South India,Soybean,30.541122972526026,7.013907982022533,27.56332525404858,137.981265896867,66.29020948137683,6.180488281782609,None,Mixed,121.91867110132024,2024-03-11,2024-08-06,148,5235.23,SENS0168,2024-05-06,14.846089,79.789362,0.6420952222837766,Mild,Hyderabad,Quail Meadow
FARM0169,North India,Rice,17.431512244761528,6.1926376789607165,21.81370444308242,86.53809797760157,47.86002497019504,4.457553967840404,Manual,Inorganic,66.98272106298404,2024-01-08,2024-05-21,134,2271.18,SENS0169,2024-03-13,28.796014,81.781618,0.31215815511521255,Severe,Lucknow,Quail Ranch
FARM0170,South USA,Rice,14.723901804807388,6.330463398073731,21.98897339694852,115.23163412265508,50.24606542351198,4.780848026321575,Sprinkler,Organic,110.43470654655167,2024-01-10,2024-04-10,91,3274.87,SENS0170,2024-01-23,34.543287,-94.007586,0.420505918601301,Moderate,Arkansas,Quail Ridge
FARM0171,East Africa,Wheat,26.006453755283157,6.219606262267044,23.978810223010253,118.61892178137333,62.141281251985646,6.542734889019419,None,Organic,121.25189753485789,2024-02-07,2024-05-19,102,3637.12,SENS0171,2024-04-17,-4.682019,37.913655,0.4268182645922931,Mild,Tanzania,River Acres
FARM0172,Central USA,Rice,21.613457297502816,5.9607369685429505,19.176612769246635,91.53302904750791,61.64454293697263,5.851480395437235,Drip,Inorganic,108.9840367741291,2024-03-20,2024-07-18,120,2798.7,SENS0172,2024-03-23,42.787315,-102.196133,0.39619405102450694,Moderate,Oklahoma,River Farm
FARM0173,North India,Maize,21.925271874695635,6.441632575723486,24.687057120489342,135.510395999654,54.883129948242036,6.543700211005453,Manual,Inorganic,124.3085941659183,2024-02-02,2024-05-18,106,3758.96,SENS0173,2024-03-06,29.471948,79.0369,0.44925771638711354,Mild,Dehradun,River Farms
FARM0174,North India,Maize,17.335864048888638,6.161167903928571,23.579013023133264,91.73256723324008,55.969096984470674,5.470472348526512,None,Mixed,74.29976075517597,2024-02-19,2024-07-14,146,2942.57,SENS0174,2024-05-05,28.177665,81.617005,0.32731035227353844,Moderate,Lucknow,River Field
FARM0175,North India,Cotton,28.690166504209863,6.527382749240105,25.284375434254013,167.24663030293672,60.68816554249118,6.7211768114956305,None,Organic,104.90708875008879,2024-03-05,2024-07-26,143,4380.19,SENS0175,2024-05-25,31.291314,77.256593,0.4715854057420245,Mild,Chandigarh,River Fields
FARM0176,East Africa,Cotton,27.06227081375398,6.2179920406690306,22.403785060125855,158.89910013126055,64.58684930741492,4.9192302586611225,None,Organic,154.16680680953218,2024-01-19,2024-05-25,127,4330.71,SENS0176,2024-02-13,1.904862,35.741116,0.5390559642682868,Mild,Kenya,River Grove
FARM0177,East Africa,Maize,25.752220633627108,6.1077706252970065,22.979822341687232,114.05882001090305,58.16928428957256,5.6448233304679825,None,Organic,75.51173063393146,2024-03-23,2024-07-16,115,2155.13,SENS0177,2024-07-14,-3.53786,37.91728,0.3870869763877684,Severe,Kenya,River Hollow
FARM0178,Central USA,Maize,30.5872937297345,6.691977716569054,28.43325503446041,195.14367079265395,72.21407266824608,6.772993071037473,Drip,Organic,148.6328911680689,2024-03-15,2024-08-01,139,5303.29,SENS0178,2024-05-22,41.128578,-96.034025,0.6378014186854625,None,Minnesota,River Meadow
FARM0179,South India,Cotton,26.38181260333327,6.581443288789808,23.684659291815066,166.7154451822711,48.023504587426686,6.4717821970365,Manual,Mixed,110.68009998297484,2024-01-25,2024-06-17,144,4097.14,SENS0179,2024-02-01,14.251353,79.960462,0.5006291790809226,Mild,Bangalore,River Ranch
FARM0180,South India,Wheat,23.652792679175256,6.551753509354688,23.909784399761968,134.31660010066005,61.485122359130614,6.139052779759171,Drip,Mixed,117.38618520176774,2024-02-16,2024-06-23,128,3784.41,SENS0180,2024-06-16,13.415321,76.596255,0.48889860106515565,Mild,Bangalore,River Ridge
FARM0181,North India,Maize,20.799571454274542,5.986498847643799,17.84193860235643,153.14791396088293,55.32853390850741,4.3114479697250045,Sprinkler,Mixed,80.57278430292087,2024-03-14,2024-07-14,122,2080.21,SENS0181,2024-06-21,31.418544,77.797083,0.36577740266550635,Severe,Dehradun,Summit Acres
FARM0182,South India,Soybean,22.924116967317342,6.522769447161096,20.479718096677242,126.22723813884907,50.546549537159045,4.358701361762201,Manual,Inorganic,110.64299345537265,2024-02-15,2024-05-31,106,2872.84,SENS0182,2024-03-24,11.960003,76.799606,0.3924349659753793,Moderate,Bangalore,Summit Farm
FARM0183,North India,Soybean,33.56785659014902,6.520433219346634,26.93230328506912,139.53299291778092,76.59480677173171,6.223464318339942,Drip,Inorganic,143.70867879979096,2024-02-21,2024-06-10,110,5445.97,SENS0183,2024-03-25,28.257029,79.332435,0.6238340853919163,None,Lucknow,Summit Farms
FARM0184,South India,Soybean,28.86749648993194,6.830251529640604,30.851507403212675,165.67659569967304,66.03212170362397,7.210161883767608,Sprinkler,Mixed,137.71724700163358,2024-02-10,2024-05-26,106,5627.65,SENS0184,2024-04-01,13.433737,79.678178,0.7182583928783084,None,Bangalore,Summit Field
FARM0185,Central USA,Rice,23.183550314374713,6.478738742171609,23.40210117647917,102.66072077335411,48.580771349757285,6.4065299006037675,Sprinkler,Mixed,101.95139550421904,2024-01-10,2024-04-15,96,3883.12,SENS0185,2024-04-13,43.32597,-93.699926,0.5061310039192787,Mild,Minnesota,Summit Fields
FARM0186,Central USA,Wheat,25.281521762740308,6.28917867301477,27.35469686583017,163.32460029485455,64.42584568278097,5.300265097154133,Manual,Inorganic,131.75135370203077,2024-02-02,2024-06-26,145,4537.59,SENS0186,2024-02-20,38.342215,-96.73803,0.6283527378640871,Mild,Oklahoma,Summit Grove
FARM0187,East Africa,Maize,21.549418643714162,6.218398464590408,20.28400101938759,103.28247049999564,36.05868991513019,4.43978246479883,None,Organic,75.60577867515853,2024-03-06,2024-07-23,139,2323.25,SENS0187,2024-05-30,1.615131,37.062865,0.3344721262664112,Severe,Kenya,Summit Hollow
FARM0188,South USA,Maize,35.722410864145225,6.806596031284817,29.387949836238143,184.99401412692626,70.77617799625492,6.427828151329667,Sprinkler,Mixed,154.4350095764602,2024-02-13,2024-06-09,117,5861.31,SENS0188,2024-04-02,33.00617,-92.315424,0.6255951747116257,None,Arkansas,Summit Meadow
FARM0189,Central USA,Soybean,17.588985689553922,6.396299594932488,20.945650976338538,155.01445657752654,56.93891017652217,4.844712533163503,Sprinkler,Organic,132.24205589606171,2024-03-10,2024-06-18,100,2261.15,SENS0189,2024-03-15,40.889984,-98.662568,0.2505572551077715,Severe,Oklahoma,Summit Ranch
FARM0190,South USA,Rice,26.802510033994622,6.5871835911626375,28.669132711044174,186.800805982227,52.78532209452382,5.508089101009228,None,Organic,154.0982912471127,2024-03-05,2024-06-16,103,4936.31,SENS0190,2024-05-19,34.041948,-88.4367,0.6748513331327793,Mild,Mississippi,Summit Ridge
FARM0191,South USA,Maize,26.47424347539209,6.826306220762062,24.262884700927067,172.14254756452857,52.107546036168095,5.084365534269311,Drip,Mixed,133.16927142043454,2024-02-13,2024-05-20,97,4189.13,SENS0191,2024-04-13,33.320397,-95.163098,0.6021436401526457,Mild,Arkansas,Timber Acres
FARM0192,Central USA,Cotton,28.030024567006414,6.842776244211503,24.20951166689832,154.9779808042858,60.31039241795919,5.98981165257148,Drip,Mixed,135.66878133558583,2024-01-10,2024-04-16,97,5139.04,SENS0192,2024-03-13,44.958161,-103.90726,0.6040433113472236,Mild,Minnesota,Timber Farm
FARM0193,Central USA,Cotton,30.046709209095418,6.530814736082889,23.60519459332008,141.4504895892928,63.93785748137478,6.388959922808866,Drip,Organic,100.77617771848797,2024-01-27,2024-06-01,126,4676.09,SENS0193,2024-02-15,35.624439,-116.343591,0.546557081433473,Mild,Oregon,Timber Farms
FARM0194,Central USA,Rice,12.899699495171316,6.449588038690956,20.595639616507274,110.8328727301373,46.750045234533445,4.371838667226825,Manual,Inorganic,76.1133452131253,2024-02-14,2024-06-30,137,2463.6,SENS0194,2024-02-25,44.824273,-115.819681,0.4127231556229638,Severe,Oregon,Timber Field
FARM0195,Central USA,Cotton,22.11135772855409,6.871438929636567,22.246550601959378,151.26122501109145,68.97690041048216,5.85765847341548,None,Inorganic,137.40352075341218,2024-02-23,2024-07-16,144,3912.98,SENS0195,2024-06-09,38.967251,-103.307118,0.4323919019769688,Mild,Oklahoma,Timber Fields
FARM0196,South India,Wheat,28.99062807315594,7.129767310470616,29.781597203259278,151.1262888849407,79.35619245372244,7.691668532555313,Manual,Mixed,136.67410563580955,2024-03-27,2024-08-10,136,5893.78,SENS0196,2024-04-29,15.408665,78.646171,0.6453999613034171,None,Hyderabad,Timber Grove
FARM0197,North India,Wheat,20.65940680929134,6.352667830577366,25.70626044931495,165.14588577713494,68.70786031537973,5.4818254107780096,Sprinkler,Mixed,121.30335533656329,2024-03-17,2024-07-29,134,4802.32,SENS0197,2024-04-10,29.699404,77.621232,0.6107805851279454,Mild,Dehradun,Timber Hollow
FARM0198,South India,Soybean,19.693120824334212,6.224094733672594,28.239235698453253,132.23207325264232,56.187484515288446,5.493093392728716,None,Organic,106.6434055732225,2024-02-11,2024-05-26,105,3323.58,SENS0198,2024-03-17,11.338905,76.32147,0.4077908285802393,Moderate,Bangalore,Timber Meadow
FARM0199,South India,Wheat,15.818755833015056,6.555642164117502,17.50221092257126,96.35295220986805,49.881056799999456,5.751963340708466,None,Mixed,75.10831492978944,2024-01-13,2024-05-08,116,2143.33,SENS0199,2024-03-23,14.22858,78.119721,0.3066706320805815,Severe,Bangalore,Timber Ranch
FARM0200,East Africa,Soybean,27.23619423026346,6.394825347100721,27.181958978557073,150.96155114498274,59.64513990044628,6.133138355818327,None,Inorganic,114.37625585391524,2024-03-20,2024-07-18,120,4866.63,SENS0200,2024-05-05,1.082556,36.796144,0.577013100888373,Mild,Kenya,Timber Ridge
FARM0201,North India,Maize,26.989865668794955,6.1849030731096954,21.900948949122515,126.39388040557772,63.30240846252461,5.3960764154712315,Sprinkler,Inorganic,113.1722448804424,2024-03-24,2024-08-07,136,3636.84,SENS0201,2024-05-28,29.952989,75.844844,0.47640776725437156,Mild,Chandigarh,Unity Acres
FARM0202,South India,Cotton,30.472044846159204,6.635532178850115,27.89271406906671,192.13272115866494,64.63014381894821,7.745531089974228,Drip,Inorganic,134.55957877871035,2024-03-17,2024-06-23,98,5855.42,SENS0202,2024-03-17,15.139494,79.554437,0.7565908970576251,None,Hyderabad,Unity Farm
FARM0203,East Africa,Rice,24.418159392584503,6.678192862647341,26.85196429255482,171.0995047407359,70.86884006411154,6.162248627729611,Manual,Mixed,120.18242379360743,2024-02-20,2024-07-17,148,4770.06,SENS0203,2024-04-23,-1.521393,35.033417,0.5798472619470262,Mild,Kenya,Unity Farms
FARM0204,South India,Rice,22.60931824170003,6.396277478628054,18.961870916089314,148.47115355381882,63.863361245513055,6.44017379744499,Sprinkler,Organic,98.2929530018277,2024-03-10,2024-07-21,133,3381.17,SENS0204,2024-04-12,12.511662,76.48597,0.46560239562406147,Moderate,Bangalore,Unity Field
FARM0205,North India,Maize,26.412396178028064,6.304820100182782,24.389199304641064,164.00796997655192,58.00580284202464,6.040007070844641,Manual,Inorganic,120.0273421191851,2024-03-04,2024-06-03,91,3523.48,SENS0205,2024-03-10,28.833732,78.117608,0.3454376543595694,Moderate,Delhi,Unity Fields
FARM0206,Central USA,Maize,26.930444159099867,6.547344530434271,31.8422653042012,179.0787114676531,68.48314980215534,6.488756834079801,None,Organic,138.38055737607024,2024-03-24,2024-07-27,125,5459.37,SENS0206,2024-06-27,38.266074,-98.340688,0.6433136981268315,None,Oklahoma,Unity Grove
FARM0207,North India,Cotton,27.76206854085094,6.563549831840532,27.526744148647367,179.79954404173068,73.78975574339829,7.1598523503105636,Manual,Organic,142.04348984836096,2024-02-27,2024-06-10,104,5645.95,SENS0207,2024-05-27,29.864682,79.714502,0.622652282263815,None,Dehradun,Unity Hollow
FARM0208,South India,Maize,27.707678674256833,6.362799266634492,26.164635586382367,168.68163031161384,42.033435002163614,6.379119429157351,Drip,Inorganic,133.59833154358697,2024-02-05,2024-05-15,100,4335.94,SENS0208,2024-03-08,13.026771,76.230523,0.4700203008718434,Mild,Bangalore,Unity Meadow
FARM0209,South India,Maize,30.449058414407062,7.185589079015192,30.870885112250463,211.12362362226733,74.34314105259715,7.6316679889416505,Manual,Organic,145.38090630370348,2024-02-17,2024-05-31,104,5827.95,SENS0209,2024-04-23,12.440359,76.398797,0.6395023845015464,None,Bangalore,Unity Ranch
FARM0210,North India,Maize,29.13184431623574,6.641604348391136,26.040461902513076,155.5654159993327,63.58530250333598,5.944566660110584,None,Mixed,125.67844957162532,2024-03-01,2024-06-06,97,4675.75,SENS0210,2024-04-27,30.689926,81.557599,0.5489755352881788,Mild,Dehradun,Unity Ridge
FARM0211,North India,Maize,22.073626701017485,6.5691480762460746,22.034684045689144,148.11908999717963,53.87473736140781,5.59602930820764,Manual,Mixed,114.07230717736775,2024-02-16,2024-05-18,92,3185.74,SENS0211,2024-05-09,30.795677,80.716585,0.45923213940990193,Moderate,Dehradun,Valley Acres
FARM0212,East Africa,Soybean,26.1105470549342,6.3648928605261705,19.826999761722433,167.03130435889057,62.95683981161579,5.807772440876579,Drip,Organic,125.5479701513592,2024-03-24,2024-08-10,139,3740.95,SENS0212,2024-04-11,-0.042518,36.018496,0.4038470474329867,Mild,Kenya,Valley Farm
FARM0213,North India,Wheat,15.200924891607114,6.211789635827629,22.098330959870594,132.0883558944346,46.08893601650498,5.488827584207205,None,Inorganic,87.67161405915162,2024-02-14,2024-06-03,110,2067.56,SENS0213,2024-05-10,28.555531,81.698984,0.30071635164159205,Severe,Lucknow,Valley Farms
FARM0214,East Africa,Wheat,29.240066679980785,6.517651227438889,27.4463635757582,226.5304274105875,60.57119326813307,5.923822658740915,Drip,Inorganic,140.45255947986297,2024-02-13,2024-06-07,115,5288.49,SENS0214,2024-02-16,1.164518,36.14846,0.6040811473036887,None,Kenya,Valley Field
FARM0215,East Africa,Maize,18.013078291304378,5.7313513955559285,19.00285000621983,80.67820904146788,46.300477973010054,5.758656183925576,Manual,Organic,79.67631405877239,2024-03-05,2024-06-10,97,2167.09,SENS0215,2024-05-17,-0.795136,37.03843,0.29297079531371745,Severe,Kenya,Valley Fields
FARM0216,South India,Maize,26.03909271606772,6.400151850444681,28.18242185079296,185.49819639616365,69.846419365326,7.029444963776308,Manual,Organic,128.1801990502426,2024-03-26,2024-07-30,126,5409.0,SENS0216,2024-07-12,15.896265,78.107513,0.6907408559166336,None,Hyderabad,Valley Grove
FARM0217,Central USA,Wheat,20.004782701035293,6.126446884427972,23.642149626788484,147.9960665002767,60.19497047034981,5.0324349301531415,Sprinkler,Organic,130.16568698038822,2024-01-07,2024-04-26,110,3943.44,SENS0217,2024-02-18,38.974747,-104.232755,0.517762268189437,Mild,Oklahoma,Valley Hollow
FARM0218,Central USA,Cotton,26.200673997107504,6.017921752832811,23.40778954482115,141.12386247131369,59.42028935356251,6.717298011528878,Manual,Organic,122.81955194894515,2024-02-16,2024-06-14,119,3781.43,SENS0218,2024-05-25,36.650298,-111.108233,0.5411727121106427,Mild,Oregon,Valley Meadow
FARM0219,Central USA,Rice,17.522606499710154,6.020008091879032,22.19724709119497,85.58440435747727,54.42651060715805,6.600184703513026,Drip,Mixed,97.91906298488703,2024-03-07,2024-08-02,148,2146.63,SENS0219,2024-05-12,47.04647,-104.748876,0.29953862542842763,Severe,Minnesota,Valley Ranch
FARM0220,Central USA,Cotton,28.142361376053113,6.997836219163642,26.203986565474253,159.42996657668647,64.81616257075117,7.632664111833851,None,Inorganic,152.1542252253608,2024-03-08,2024-07-30,144,5856.0,SENS0220,2024-04-19,38.995005,-103.952469,0.6514789360463179,None,Oklahoma,Valley Ridge
FARM0221,South USA,Maize,31.14668084999318,6.732433428737749,31.116641610124503,200.5811186064489,74.1003385146803,7.964171986173006,Manual,Inorganic,149.6515286106586,2024-02-02,2024-05-04,92,5922.36,SENS0221,2024-03-14,31.885918,-90.448149,0.6818635889788703,None,Mississippi,Willow Acres
FARM0222,Central USA,Soybean,26.267845876775883,6.678754851391534,20.881995989218176,114.919528296762,64.79708649978363,5.742328362831008,Manual,Inorganic,120.92323023361743,2024-01-17,2024-05-11,115,3411.59,SENS0222,2024-05-07,41.03257,-114.572011,0.44863851870540034,Moderate,Oregon,Willow Farm
FARM0223,East Africa,Rice,17.79384254757364,6.568548618518528,23.44713223559535,149.42025764636116,47.12983168881845,4.7823549687364535,Drip,Mixed,132.3888837919441,2024-02-24,2024-05-31,97,3926.07,SENS0223,2024-04-25,-2.353403,36.774849,0.49791035043336773,Mild,Kenya,Willow Farms
FARM0224,North India,Rice,21.751544439673836,6.7030665342449245,29.621805206498042,139.45986527790728,63.74044778422801,4.895334760590305,Drip,Organic,139.25499237008688,2024-01-17,2024-05-11,115,4397.43,SENS0224,2024-03-29,29.710645,75.989929,0.4830244116698462,Mild,Chandigarh,Willow Field
FARM0225,North India,Rice,24.647597832872258,6.4104302443850125,28.764870247383634,140.63047004307694,60.734864803304816,6.540996004491141,Sprinkler,Mixed,129.36148847432145,2024-02-06,2024-06-21,136,4742.36,SENS0225,2024-06-01,31.592775,77.755982,0.5770122038381356,Mild,Chandigarh,Willow Fields
FARM0226,North India,Wheat,24.06060413197696,6.405180223281633,21.86837519237586,115.93546549804223,46.75916237232021,4.7871749643614105,None,Mixed,116.85169484180444,2024-03-17,2024-08-02,138,2470.07,SENS0226,2024-07-18,29.592172,81.674887,0.35172344246142445,Severe,Lucknow,Willow Grove
FARM0227,South USA,Soybean,28.415478423869395,6.74203225213155,24.72376299094226,173.03091923349868,58.80178242772206,5.74495422643758,None,Inorganic,134.98163886398657,2024-03-25,2024-08-15,143,4786.83,SENS0227,2024-04-19,33.988098,-95.243116,0.7029052261300411,Mild,Oklahoma,Willow Hollow
FARM0228,Central USA,Soybean,31.33529553828239,6.535920934686963,26.46229527216191,194.73212790976365,66.87983262389432,6.561078893756734,Drip,Mixed,147.6356900645312,2024-03-07,2024-07-19,134,5217.15,SENS0228,2024-06-19,39.777122,-105.396245,0.7148425450710448,Mild,Oklahoma,Willow Meadow
FARM0229,Central USA,Soybean,28.122599716185196,6.857273666881879,29.235977175148825,253.71971271216978,85.9749542481161,7.412372072537485,None,Organic,153.67518949356068,2024-03-16,2024-06-30,106,5954.03,SENS0229,2024-05-28,43.101634,-95.980796,0.6536303066789756,None,Minnesota,Willow Ranch
FARM0230,South India,Cotton,15.958388292196659,6.400124898640276,21.523168913434347,114.30970766533295,39.78297930777598,4.130619104967733,Drip,Organic,98.13158224329969,2024-03-01,2024-07-20,141,2364.35,SENS0230,2024-04-07,15.200703,76.566557,0.3151407094627884,Severe,Bangalore,Willow Ridge
FARM0231,South India,Maize,31.007284940090756,6.564983617896082,27.733160509449714,197.10587260102292,61.140417562493454,6.385362234292124,Drip,Organic,129.951017200897,2024-02-01,2024-05-13,102,5402.27,SENS0231,2024-05-13,13.636406,78.234729,0.5667432136058286,None,Bangalore,Xenia Acres
FARM0232,East Africa,Rice,25.30439380257161,6.280305218911999,25.019316727934925,124.0327478515564,51.14559962838601,7.076345099649011,None,Inorganic,131.10333121911611,2024-02-19,2024-05-31,102,4070.97,SENS0232,2024-05-23,-1.124812,35.833999,0.4743517735947838,Mild,Kenya,Xenia Farm
FARM0233,Central USA,Maize,21.31637001398507,6.0633050920225715,21.2400957539602,77.85346566703579,61.43223512118208,4.447821167453941,Drip,Mixed,138.6951069318817,2024-02-11,2024-07-10,150,2468.04,SENS0233,2024-06-21,41.607354,-95.607367,0.3558848569012977,Severe,Minnesota,Xenia Farms
FARM0234,South USA,Cotton,28.257359996483792,6.6605650947318855,24.50377563451319,218.22353343885194,64.40436799988929,7.181888776405842,Drip,Inorganic,131.56975223985992,2024-01-13,2024-05-22,130,5154.62,SENS0234,2024-03-09,34.254085,-94.240927,0.6749038701224861,Mild,Arkansas,Xenia Field
FARM0235,East Africa,Soybean,21.888128919134335,6.417415638999255,21.500539603034866,97.3157385499458,51.92792205710719,5.068743127881273,Drip,Mixed,103.30656056034127,2024-02-11,2024-06-02,112,2874.26,SENS0235,2024-04-24,0.824487,37.388346,0.3451567403059332,Moderate,Kenya,Xenia Fields
FARM0236,South USA,Rice,31.571573525445597,6.570140444060802,30.64000827718011,169.63052024376097,69.37495195371686,7.296638072504507,Manual,Organic,140.74439425307727,2024-01-03,2024-05-15,133,5823.12,SENS0236,2024-05-08,34.840499,-95.304387,0.6502091661185183,None,Oklahoma,Xenia Grove
FARM0237,South USA,Maize,27.571759559439958,6.514259220472164,22.412367275013505,150.81095741097505,53.865954635548725,6.803897863869785,Manual,Inorganic,113.7527597414043,2024-03-05,2024-06-06,93,4102.94,SENS0237,2024-04-28,33.88665,-94.437622,0.39978927027862277,Mild,Arkansas,Xenia Hollow
FARM0238,South India,Cotton,24.07804348675693,6.488745606262329,22.531525627498638,122.67282947249166,51.667982755545985,6.017450033028043,Drip,Inorganic,128.1233260559359,2024-02-06,2024-06-10,125,3051.4,SENS0238,2024-03-11,12.292269,76.98977,0.3915772632004601,Moderate,Bangalore,Xenia Meadow
FARM0239,South USA,Rice,24.882427241603775,6.801464763862276,26.324269157945242,163.00266152476084,86.6917916897141,7.347718205266576,Sprinkler,Organic,131.24462924559393,2024-01-18,2024-05-14,117,5425.23,SENS0239,2024-02-12,32.206804,-89.698893,0.5891405761503944,None,Mississippi,Xenia Ranch
FARM0240,South India,Cotton,12.6826463569387,6.601292974885546,21.737983373147014,100.559059704382,58.59340049274232,4.3575523300586205,Manual,Inorganic,87.79882700283028,2024-03-02,2024-06-25,115,2395.9,SENS0240,2024-03-22,15.633121,78.016804,0.30626158932053427,Severe,Hyderabad,Xenia Ridge
FARM0241,South USA,Maize,29.934790422898082,6.827754450062493,25.42870503158109,195.2060496658293,57.888543735341216,7.068994929210444,Manual,Mixed,104.87060167877651,2024-01-19,2024-05-24,126,4599.46,SENS0241,2024-03-27,32.980583,-89.387179,0.5140435879899274,Mild,Mississippi,Yonder Acres
FARM0242,South USA,Wheat,33.99682030081725,6.50350340173737,31.350815468093984,170.60249743694084,75.40030876349468,6.218161572910342,Manual,Inorganic,133.08722672650774,2024-03-13,2024-08-04,144,5628.29,SENS0242,2024-04-02,32.16391,-89.289661,0.6582962229183152,None,Mississippi,Yonder Farm
FARM0243,Central USA,Soybean,18.21065767467678,6.696936994403234,23.683495516641003,87.20213838997165,46.724394057768954,5.622558245882596,None,Inorganic,77.60037190517535,2024-01-05,2024-05-20,136,2938.51,SENS0243,2024-03-09,45.242953,-118.323176,0.3002893824286722,Moderate,Oregon,Yonder Farms
FARM0244,South USA,Wheat,25.18815528991256,6.610092005696962,25.98118211191398,216.82230184411566,59.100749547175354,7.045921557330476,Drip,Organic,155.43154728115144,2024-01-03,2024-05-13,131,5726.36,SENS0244,2024-04-11,32.436516,-94.678372,0.5996775830169339,None,Louisiana,Yonder Field
FARM0245,South India,Soybean,26.422389766701844,6.7511727613788945,27.04575933802755,170.74706257605274,69.38714703101289,6.5083785867607435,Manual,Mixed,167.0592421941207,2024-03-18,2024-06-27,101,4363.32,SENS0245,2024-05-15,15.591293,78.145367,0.6402209147118222,Mild,Hyderabad,Yonder Fields
FARM0246,Central USA,Cotton,27.26072807329297,6.493655327494269,23.11832965887674,130.49863494059383,67.05707671498762,6.15610168237834,Drip,Mixed,112.10677836932838,2024-01-12,2024-04-29,108,3876.79,SENS0246,2024-01-13,43.974825,-118.094114,0.4196752727635399,Mild,Oregon,Yonder Grove
FARM0247,North India,Cotton,28.77826175506042,6.3570255563495115,22.836931124593356,98.33691100500813,64.09332213285025,5.167154743196315,None,Inorganic,87.73328285005509,2024-03-24,2024-08-02,131,3558.89,SENS0247,2024-06-28,31.18104,78.614776,0.3967250667099923,Moderate,Dehradun,Yonder Hollow
FARM0248,Central USA,Soybean,19.889179055314827,5.888721365757906,21.46531700209579,81.43656363161448,43.391515933483944,4.056135762244571,None,Inorganic,103.53128349199314,2024-02-07,2024-05-27,110,2077.58,SENS0248,2024-02-13,44.976672,-105.037834,0.39205426658638,Severe,Minnesota,Yonder Meadow
FARM0249,Central USA,Rice,17.393285469587177,6.22225343143214,19.959277385129894,99.94565577385016,45.849440980674615,5.636909409874877,Manual,Inorganic,79.88408563309682,2024-02-23,2024-07-12,140,2126.95,SENS0249,2024-03-14,40.019144,-118.751099,0.4505064252423482,Severe,Oregon,Yonder Ranch
FARM0250,North India,Soybean,28.945806827206052,6.436568303887402,30.92646081512131,228.8307924368003,78.49875625952815,7.123864008057337,Sprinkler,Inorganic,169.303598072126,2024-02-08,2024-06-24,137,5978.14,SENS0250,2024-03-29,29.85381,80.643037,0.6401776293175521,None,Dehradun,Yonder Ridge
FARM0251,South USA,Cotton,30.201623556316736,6.887232460217484,26.680523427788692,162.83997323804437,73.0750116240463,7.579654240866189,Drip,Inorganic,139.02227784902232,2024-02-07,2024-05-30,113,5550.08,SENS0251,2024-05-27,34.488069,-89.693582,0.6366056425997416,None,Mississippi,Aspen Acres
FARM0252,Central USA,Wheat,20.56675719199689,6.670779205314824,21.552451459600185,121.3711377396081,50.173640308226005,5.438369641616392,None,Mixed,94.61324553019526,2024-02-25,2024-05-30,95,2994.89,SENS0252,2024-04-28,43.192333,-117.322403,0.41101431665660526,Moderate,Oregon,Aspen Farm
FARM0253,North India,Maize,19.910381932784308,6.2639522640145655,22.409499244135507,151.54550887215314,44.577668559114365,4.709722795021742,Manual,Inorganic,108.13077208868312,2024-01-23,2024-05-16,114,3432.67,SENS0253,2024-02-09,29.109556,81.617543,0.5251024517194023,Moderate,Lucknow,Aspen Farms
FARM0254,East Africa,Cotton,27.81009739097474,6.435287789943287,21.783616527280472,65.4470447848386,54.12478723576385,6.1758653424606065,Sprinkler,Organic,116.35388838677477,2024-02-10,2024-07-01,142,3053.4,SENS0254,2024-05-13,-2.61902,35.264384,0.35057205923013457,Moderate,Kenya,Aspen Field
FARM0255,North India,Soybean,25.531400666128096,6.174017775345094,24.18331777354044,139.66387014781026,57.9048583944762,5.017124892223981,None,Organic,94.8802201082678,2024-02-25,2024-06-29,125,2616.53,SENS0255,2024-04-01,28.061231,78.226482,0.3430129715002456,Severe,Delhi,Aspen Fields
FARM0256,North India,Rice,24.970991591686435,6.2454097617608975,24.1093710503582,94.6600772524902,44.7425730588012,5.723829251347738,None,Mixed,97.08193439268508,2024-03-23,2024-07-28,127,3023.75,SENS0256,2024-06-24,28.055356,80.777777,0.4357522450336917,Moderate,Lucknow,Aspen Grove
FARM0257,South USA,Wheat,26.681816482290067,6.821562728612478,31.197617705347554,191.63264490430424,73.36005102316675,6.213433551421955,Drip,Mixed,137.01718049604546,2024-01-24,2024-04-27,94,5337.83,SENS0257,2024-02-02,33.441291,-92.220237,0.6550693339948546,None,Arkansas,Aspen Hollow
FARM0258,East Africa,Cotton,29.830127286794912,6.577232446902682,30.950956728987933,173.15509859454167,66.850930493742,7.490771594249045,None,Mixed,111.11498414505058,2024-03-19,2024-07-09,112,4697.97,SENS0258,2024-06-16,-4.666172,37.546655,0.5491442758555873,Mild,Tanzania,Aspen Meadow
FARM0259,East Africa,Cotton,29.883860731551994,6.959116414750889,24.79167937554675,199.35202105953329,71.18100084874291,5.831151848530506,Manual,Inorganic,139.297890798172,2024-03-14,2024-08-03,142,4903.47,SENS0259,2024-05-14,-3.239635,36.508683,0.5822582968659467,Mild,Tanzania,Aspen Ranch
FARM0260,Central USA,Cotton,23.693831747238345,6.304785812057898,23.494710051295943,144.0195710820349,60.83621824728542,5.368728403319605,Manual,Organic,81.34697802814418,2024-01-07,2024-05-30,144,3259.62,SENS0260,2024-03-17,38.835183,-99.734946,0.3522410558202864,Moderate,Oklahoma,Aspen Ridge
FARM0261,North India,Wheat,22.876828103637475,6.479660977838878,18.977494555779476,46.52647997554654,43.39440791153481,5.194388937264043,Manual,Organic,86.91342354579493,2024-03-07,2024-07-21,136,2308.81,SENS0261,2024-05-29,28.431191,79.429227,0.31192628187645105,Severe,Lucknow,Brookside Acres
FARM0262,East Africa,Maize,23.070877525961833,6.3756613362432315,21.047765705364718,101.61624955143523,41.01081239360138,4.660186985645829,None,Inorganic,114.13221657066217,2024-01-28,2024-06-15,139,2906.87,SENS0262,2024-01-30,-2.624494,37.095735,0.37162354842089235,Moderate,Kenya,Brookside Farm
FARM0263,Central USA,Soybean,24.243978820092927,6.547553206118094,21.879795048976113,131.1346490676814,50.31323554257969,5.7849540866883045,None,Mixed,111.1534367443004,2024-01-08,2024-05-04,117,3159.13,SENS0263,2024-02-27,45.571686,-100.54819,0.4223265778167104,Moderate,Minnesota,Brookside Farms
FARM0264,East Africa,Cotton,28.37887597901466,6.465624360867686,23.803288457284722,156.13668131374055,69.1602054804851,7.348560903561948,Sprinkler,Inorganic,135.461515674837,2024-03-07,2024-07-10,125,4463.99,SENS0264,2024-06-09,-4.85004,35.016274,0.5162783529259901,Mild,Tanzania,Brookside Field
FARM0265,Central USA,Soybean,32.58796968818002,6.736298062396197,26.999722619311736,211.182234225222,69.3371636036656,6.641515807140458,Drip,Inorganic,148.5694944979995,2024-02-20,2024-07-11,142,5960.64,SENS0265,2024-06-12,45.638086,-107.856888,0.720544790052468,None,Oregon,Brookside Fields
FARM0266,South India,Maize,16.882020550177423,6.373132246864712,22.981964955034474,148.98056843664244,49.607404611636454,5.861528064220203,Sprinkler,Inorganic,125.09403544172262,2024-03-26,2024-07-01,97,3220.47,SENS0266,2024-05-25,15.08411,77.07752,0.4676214090705906,Moderate,Bangalore,Brookside Grove
FARM0267,East Africa,Soybean,20.647290634955056,6.160154604632969,19.689330289929302,130.68449893116735,38.0434024119743,3.384859340181519,None,Mixed,113.15441126380209,2024-03-02,2024-06-16,106,2681.28,SENS0267,2024-04-07,-0.561468,35.321541,0.3696642884651248,Severe,Kenya,Brookside Hollow
FARM0268,North India,Wheat,28.721473640731325,6.834543163814302,30.053034866574457,185.06849781572865,83.04863191641397,6.781256987252417,None,Organic,150.94733789146926,2024-03-23,2024-06-27,96,5615.49,SENS0268,2024-05-24,31.056349,76.752277,0.6792893059383213,None,Chandigarh,Brookside Meadow
FARM0269,East Africa,Wheat,25.297428383366007,6.7851854732264005,25.750087460343764,134.8687091441335,74.0538980025493,6.401413088294566,Manual,Inorganic,152.52946731299045,2024-01-17,2024-05-03,107,5247.57,SENS0269,2024-04-06,-2.259397,35.849426,0.6267663050674753,Mild,Kenya,Brookside Ranch
FARM0270,East Africa,Maize,35.51536770041567,6.823832858075359,34.037836591763536,179.63735259747858,76.32910755394974,6.247539354689711,Sprinkler,Inorganic,155.87098360736306,2024-01-14,2024-05-02,109,5638.94,SENS0270,2024-02-25,1.298336,37.039456,0.6641017549299667,None,Kenya,Brookside Ridge
FARM0271,South India,Maize,25.771623389237995,6.641817032030312,21.337629452184263,127.29398395283052,57.943352440618085,6.094710933727105,Sprinkler,Inorganic,93.53891544941064,2024-03-24,2024-06-29,97,2736.54,SENS0271,2024-04-11,13.117714,76.114745,0.3314612193202842,Severe,Bangalore,Cottonwood Acres
FARM0272,South USA,Maize,30.404235719550403,6.839615482197145,25.97314398299883,132.68812307621482,66.69010636813094,5.970615510662856,Drip,Organic,105.81109895861604,2024-03-20,2024-07-05,107,4422.42,SENS0272,2024-06-06,33.870012,-95.073582,0.5556219306435725,Mild,Arkansas,Cottonwood Farm
FARM0273,North India,Cotton,29.25748022827516,6.555955061194205,24.59171761713514,191.97066808584592,65.27337796915836,6.399541755690619,None,Organic,142.01871178732324,2024-01-02,2024-04-27,116,5058.16,SENS0273,2024-01-03,30.040097,81.423749,0.5998908694105516,Mild,Lucknow,Cottonwood Farms
FARM0274,South India,Wheat,33.35823602200818,6.736098988404968,31.10365892822416,205.00753737530917,67.466372589445,6.381919086520181,Sprinkler,Inorganic,147.56996142864736,2024-01-20,2024-06-05,137,5297.31,SENS0274,2024-04-09,12.653046,76.560053,0.733849235221036,None,Bangalore,Cottonwood Field
FARM0275,East Africa,Wheat,22.07913462688991,6.264391427839024,25.390860789783606,130.9939875455293,51.09299961802399,4.214675152527112,Drip,Mixed,123.05046774995843,2024-03-02,2024-06-12,102,3164.72,SENS0275,2024-04-21,-2.251974,35.577244,0.48995699767629514,Moderate,Kenya,Cottonwood Fields
FARM0276,South USA,Maize,24.039440943467344,6.445835404951937,24.61323743695598,61.63837168799516,75.30528350645301,4.972266858862228,Drip,Organic,98.89490188180363,2024-03-18,2024-06-24,98,3572.27,SENS0276,2024-04-28,33.418512,-93.646514,0.4722238010110452,Moderate,Arkansas,Cottonwood Grove
FARM0277,South USA,Wheat,24.43133882104611,6.481740845142429,24.001240485210904,138.38593792544538,69.31489008396021,7.07952838014896,Drip,Mixed,118.60642230678683,2024-02-03,2024-06-05,123,4829.12,SENS0277,2024-05-06,31.992032,-89.380476,0.5431997274882233,Mild,Mississippi,Cottonwood Hollow
FARM0278,East Africa,Cotton,23.483771670476504,6.72249397771396,23.729332353561727,176.8507121412519,51.33899242449992,4.116954210731017,Sprinkler,Organic,114.71609390102648,2024-01-14,2024-05-02,109,3238.07,SENS0278,2024-04-21,0.193772,35.447632,0.36316335911022857,Moderate,Kenya,Cottonwood Meadow
FARM0279,South India,Wheat,23.844966017302085,6.522632438769674,21.92201805298351,126.31511691450682,60.58609388322163,5.263150490073332,None,Organic,112.91963221133346,2024-03-16,2024-07-13,119,3640.61,SENS0279,2024-03-26,14.078101,78.364995,0.5194713946153083,Mild,Bangalore,Cottonwood Ranch
FARM0280,East Africa,Soybean,26.707052777936873,6.666957016695626,31.43409123222189,142.50898788507712,64.15393583188632,6.562447329863206,Drip,Mixed,116.98111691941429,2024-03-10,2024-06-29,111,5681.54,SENS0280,2024-03-16,-0.796693,35.059177,0.681587735110565,None,Kenya,Cottonwood Ridge
FARM0281,East Africa,Soybean,28.255178772216404,6.866552593408757,28.748870780997716,206.44696051525327,77.34908724545697,7.731850823254025,Manual,Inorganic,140.96608794081075,2024-02-27,2024-05-31,94,5033.77,SENS0281,2024-05-07,-0.455461,35.551659,0.6262702733995664,Mild,Kenya,Driftwood Acres
FARM0282,Central USA,Soybean,21.74939419078501,5.952948776129246,23.308742378447622,127.7482614062576,49.349682094060896,6.086310068200774,Drip,Inorganic,78.66227924576515,2024-03-26,2024-08-08,135,3148.75,SENS0282,2024-06-15,47.736134,-98.393696,0.3224281871219535,Moderate,Minnesota,Driftwood Farm
FARM0283,East Africa,Soybean,34.323101057191415,6.244570139424098,22.58375964679129,207.10164390337434,71.36843314287225,6.199543264651455,Manual,Organic,123.50803072955807,2024-01-15,2024-05-24,130,5186.93,SENS0283,2024-03-08,-0.484462,35.50679,0.6642844507956338,Mild,Kenya,Driftwood Farms
FARM0284,Central USA,Soybean,25.29920247585887,6.569788824430904,21.54351959913109,139.04818555787395,62.69496838883923,6.5556439615286815,Manual,Mixed,129.5497517993355,2024-01-04,2024-05-16,133,3333.13,SENS0284,2024-04-14,36.653333,-117.598616,0.45121789162027737,Moderate,Oregon,Driftwood Field
FARM0285,South India,Maize,28.791155216229015,6.652974398334272,28.72353407504638,189.64012014746388,70.20701760734418,6.045161760492409,Sprinkler,Mixed,164.2788703124025,2024-03-11,2024-07-08,119,5135.96,SENS0285,2024-05-02,14.079778,79.081709,0.5571830327479146,Mild,Bangalore,Driftwood Fields
FARM0286,East Africa,Soybean,26.101130763241237,6.5633930913210765,27.647497904595056,161.7359974466478,61.37082761041344,6.759585187689502,Sprinkler,Inorganic,103.3616142251915,2024-02-13,2024-06-22,130,4137.09,SENS0286,2024-03-26,-0.374757,37.005021,0.4870668246426421,Mild,Kenya,Driftwood Grove
FARM0287,Central USA,Wheat,30.651872390446076,6.441692101441295,30.66786165806769,208.83147221902613,71.11408510625907,5.876671216273912,Manual,Organic,139.89568559141026,2024-01-25,2024-05-06,102,5653.42,SENS0287,2024-03-21,36.185701,-104.500886,0.6787629179018304,None,Oklahoma,Driftwood Hollow
FARM0288,South India,Maize,29.249135886222945,6.677523676852786,24.852147645898086,243.3698450184744,69.32066800300943,7.479962158343849,Sprinkler,Organic,142.49978812892374,2024-02-13,2024-06-27,135,5459.24,SENS0288,2024-03-13,13.760866,77.018425,0.6483596751360998,None,Bangalore,Driftwood Meadow
FARM0289,Central USA,Cotton,19.17674544290831,6.804102895895512,23.99312151054654,154.95536116202848,50.811164647653825,5.3293105034312855,Sprinkler,Inorganic,135.1265255715528,2024-02-09,2024-06-12,124,3276.6,SENS0289,2024-04-05,39.434914,-104.029455,0.4081122517620174,Moderate,Oklahoma,Driftwood Ranch
FARM0290,North India,Soybean,29.77845147550657,6.861025190521449,30.300784875670463,149.72857036631683,67.3168302082668,6.064788097590216,Manual,Mixed,136.1491977701071,2024-01-10,2024-05-18,129,5568.97,SENS0290,2024-05-02,28.319827,81.846631,0.6517737998465227,None,Lucknow,Driftwood Ridge
FARM0291,North India,Cotton,25.54998870695295,6.638501939412706,23.426006041904568,182.07866395880126,75.93369956937752,6.266241992383153,None,Mixed,125.39401530059803,2024-02-27,2024-06-08,102,4851.59,SENS0291,2024-05-22,30.466954,80.619511,0.5710496353969705,Mild,Dehradun,Elmvale Acres
FARM0292,East Africa,Rice,26.527764071003258,6.610140868770489,28.283385149111464,218.12734936087566,69.79766494674931,6.985947528970056,None,Inorganic,166.98508147192007,2024-01-05,2024-05-29,145,5582.8,SENS0292,2024-03-11,-1.032544,37.262497,0.6659894462383043,None,Kenya,Elmvale Farm
FARM0293,Central USA,Cotton,30.74772624719132,6.5791127097591975,28.18147279883486,211.67297619001903,62.92754772141802,6.285785219164309,Manual,Mixed,133.34143632519536,2024-03-04,2024-06-27,115,5270.21,SENS0293,2024-06-13,41.592543,-115.098183,0.6999964227561194,None,Oregon,Elmvale Farms
FARM0294,East Africa,Cotton,32.603766556517634,6.315284393786919,28.417203690755233,187.55966974890697,69.2458619754053,7.352263340704416,Manual,Organic,159.76790222972755,2024-03-14,2024-08-01,140,5920.82,SENS0294,2024-06-09,0.576387,36.673392,0.564566255254973,None,Kenya,Elmvale Field
FARM0295,East Africa,Cotton,23.22439194806517,6.685947377265585,23.535997840553474,206.00746974597368,74.87162372921935,6.129581453760562,None,Organic,113.97317069307589,2024-03-27,2024-08-02,128,5085.37,SENS0295,2024-07-02,-4.900141,37.291154,0.5956929212395977,Mild,Tanzania,Elmvale Fields
FARM0296,South India,Soybean,29.661685578074437,6.857711852592364,27.49219096145243,210.91660616797878,74.78872541327098,7.188721599335923,None,Mixed,140.06533654613432,2024-01-07,2024-05-19,133,5509.7,SENS0296,2024-03-23,14.867243,78.184777,0.6597178057854169,None,Bangalore,Elmvale Grove
FARM0297,Central USA,Wheat,24.907875596327326,6.06940506351441,22.420871288632174,191.2187217139499,57.763847124880904,5.847671159219752,Drip,Organic,81.24951889892793,2024-02-04,2024-06-28,145,3128.84,SENS0297,2024-02-11,40.496138,-119.63273,0.42242284264318164,Moderate,Oregon,Elmvale Hollow
FARM0298,South USA,Cotton,21.41179569226407,6.113996289372704,20.475182988138933,80.50589016060053,44.66560055878168,4.942472533040712,Manual,Inorganic,73.72205342575242,2024-03-05,2024-06-11,98,2046.41,SENS0298,2024-05-26,31.308193,-89.999905,0.27842800520118877,Severe,Mississippi,Elmvale Meadow
FARM0299,South India,Wheat,26.394768564837626,6.205404249910138,22.821343421763554,124.6944208613537,60.64805336357444,5.438621086771122,Sprinkler,Inorganic,125.01568149010254,2024-03-27,2024-07-23,118,3538.86,SENS0299,2024-04-24,15.117813,76.792573,0.3616816519615282,Moderate,Bangalore,Elmvale Ranch
FARM0300,East Africa,Maize,28.14054099484155,6.42032231256839,26.0038515523528,165.02553409452995,61.54267487361981,6.559648763156262,Drip,Mixed,132.85852531731658,2024-03-03,2024-06-10,99,4920.74,SENS0300,2024-05-09,1.127035,36.275346,0.6071138154098207,Mild,Kenya,Elmvale Ridge
FARM0301,East Africa,Wheat,15.687817143831017,6.2565570676545725,20.684933140142586,86.91659470706914,44.62860803605652,5.36862058928436,Manual,Mixed,84.7167029665285,2024-02-18,2024-07-06,139,2043.13,SENS0301,2024-06-13,-3.324036,36.221712,0.3830561045403633,Severe,Tanzania,Foxrun Acres
FARM0302,Central USA,Maize,23.766398053095596,6.158775614071171,27.145843294420533,142.88069026968327,70.82362048208176,7.745883587187592,Drip,Mixed,117.84748104855024,2024-01-19,2024-04-21,93,4625.28,SENS0302,2024-02-25,36.767752,-108.988895,0.4838317658092864,Mild,Texas,Foxrun Farm
FARM0303,South India,Soybean,28.089932141026786,6.699958491175502,25.676219866021487,96.35399305897428,70.23217860598488,6.966011909275084,Drip,Mixed,125.94268732187146,2024-03-24,2024-07-01,99,4636.62,SENS0303,2024-05-10,14.654801,76.879401,0.604874923488181,Mild,Bangalore,Foxrun Farms
FARM0304,South India,Soybean,29.104626732481037,6.762025512588695,26.034943786629967,161.38341287731328,59.06020433711548,7.128210959278921,None,Inorganic,137.86723733874538,2024-01-22,2024-05-19,118,4904.0,SENS0304,2024-02-12,14.78271,78.763699,0.5725773377254219,Mild,Bangalore,Foxrun Field
FARM0305,North India,Wheat,29.16458380009913,6.461126624840765,25.373827117311375,161.50337998212711,54.61649576020784,8.207347106194788,None,Mixed,136.10540019070413,2024-02-09,2024-05-18,99,4121.77,SENS0305,2024-04-04,30.430529,81.13675,0.5060114966670756,Mild,Dehradun,Foxrun Fields
FARM0306,East Africa,Wheat,29.33459328948304,6.042657835695221,21.80482710974513,145.42936140077813,62.83022374660744,6.5163690845060085,Manual,Inorganic,85.2787442616035,2024-01-09,2024-05-19,131,4336.71,SENS0306,2024-05-06,-3.020693,35.609842,0.47839470461850614,Mild,Tanzania,Foxrun Grove
FARM0307,East Africa,Maize,20.668625884848563,6.1531654693411,23.494890163479216,168.87436849654333,64.21355033157073,5.749047236084503,None,Organic,89.81748573104721,2024-03-15,2024-07-05,112,2877.67,SENS0307,2024-04-20,-0.879961,36.787413,0.36523654701546854,Moderate,Kenya,Foxrun Hollow
FARM0308,East Africa,Rice,23.341516994478418,6.824360435485327,26.295207950167224,165.89040505085424,50.7393131108391,6.803930746684311,Sprinkler,Organic,131.7200494726097,2024-02-10,2024-06-08,119,4641.91,SENS0308,2024-02-19,-0.81083,35.668045,0.6272262686667787,Mild,Kenya,Foxrun Meadow
FARM0309,Central USA,Maize,22.467837116937236,5.885344527903158,24.095110120676328,170.46440318937783,58.79864439293338,5.057497351883711,Manual,Organic,111.43025934643039,2024-02-07,2024-06-15,129,3570.54,SENS0309,2024-06-11,46.832526,-113.109597,0.48188746933848314,Moderate,Oregon,Foxrun Ranch
FARM0310,South USA,Maize,22.35758687214038,6.306966315850376,24.862651920006932,131.82970997606526,43.77948325440558,5.195152847663191,Sprinkler,Mixed,111.2271634325905,2024-01-22,2024-05-15,114,3065.75,SENS0310,2024-04-20,33.794242,-96.641433,0.4877923789017614,Moderate,Oklahoma,Foxrun Ridge
FARM0311,South USA,Cotton,21.59540617077871,6.1590619408170575,19.34540388174533,149.67260204943338,49.96299485921502,5.225929899357404,None,Organic,111.42055587315946,2024-02-11,2024-06-23,133,3211.31,SENS0311,2024-02-25,34.043358,-96.804708,0.4749202716572924,Moderate,Oklahoma,Greenvale Acres
FARM0312,North India,Cotton,21.23678710319087,6.584806663845361,19.78387565242197,141.75955955401787,53.38993992839799,6.148900198167269,Manual,Mixed,106.29409447850617,2024-01-21,2024-06-03,134,3437.04,SENS0312,2024-02-11,28.728336,80.415309,0.461068416769194,Moderate,Lucknow,Greenvale Farm
FARM0313,South India,Wheat,28.657493394618136,6.473683670185374,27.35938203421481,205.96090792040235,62.854119495358646,6.312903648901426,None,Organic,125.14197733388032,2024-01-11,2024-05-30,140,4884.05,SENS0313,2024-04-23,12.935208,76.674502,0.6741618947996427,Mild,Bangalore,Greenvale Farms
FARM0314,East Africa,Rice,25.18332111405348,6.644360591832822,26.04526275117129,164.11244129044985,59.65381709895617,6.351035548574808,Drip,Organic,123.94585217625139,2024-01-01,2024-04-11,101,4530.65,SENS0314,2024-02-09,-4.428623,36.067572,0.5728054880854743,Mild,Tanzania,Greenvale Field
FARM0315,North India,Wheat,18.062786755046425,6.423604021567164,22.182219515272955,124.50540524888874,49.94441943507969,6.003265985037307,None,Inorganic,114.4925677753426,2024-03-19,2024-07-21,124,2549.32,SENS0315,2024-07-04,31.435466,78.460803,0.38980895902652934,Severe,Dehradun,Greenvale Fields
FARM0316,Central USA,Wheat,29.604974104991364,7.0048932530240435,26.369880600955764,186.68794035685895,63.59444223774805,7.154797857405054,Drip,Organic,125.53765121577898,2024-03-20,2024-07-12,114,5110.65,SENS0316,2024-03-22,47.0665,-106.93559,0.595289920385696,Mild,Minnesota,Greenvale Grove
FARM0317,East Africa,Maize,17.382598616089602,6.218983224632821,22.321567571278123,94.70718622039614,36.939951018975364,4.925081751342709,None,Inorganic,90.20649275698813,2024-01-20,2024-06-02,134,2150.48,SENS0317,2024-03-06,0.731614,35.640972,0.3109845814872767,Severe,Kenya,Greenvale Hollow
FARM0318,Central USA,Cotton,19.53137406496844,6.342673657600773,22.989690747253103,113.61751470836728,53.0572090837262,4.600862566890251,Sprinkler,Inorganic,94.84590725112653,2024-03-07,2024-06-22,107,2212.28,SENS0318,2024-03-21,39.668628,-100.053511,0.2791006357759876,Severe,Oklahoma,Greenvale Meadow
FARM0319,South USA,Rice,21.048809843603248,6.02408382073877,22.986213197307354,170.07863946779366,55.728500720135926,6.079071978414264,None,Organic,121.93665393582782,2024-01-18,2024-04-28,101,2632.18,SENS0319,2024-01-21,33.421052,-88.09415,0.4063551299811491,Severe,Mississippi,Greenvale Ranch
FARM0320,East Africa,Soybean,17.663986226846152,6.591167958788281,22.02976385201638,113.85712567352053,58.06676663040044,5.954064811155037,Drip,Organic,97.86560566199925,2024-01-13,2024-06-08,147,2882.65,SENS0320,2024-05-12,0.941668,37.025849,0.32355301574788303,Moderate,Kenya,Greenvale Ridge
FARM0321,East Africa,Cotton,18.49198810982775,6.157987410939127,17.619440900661186,122.5044584320111,39.086281488999404,4.115976949406831,Manual,Organic,111.59280150657236,2024-03-02,2024-06-17,107,2546.01,SENS0321,2024-04-30,-2.352086,36.165256,0.38718886156360266,Severe,Kenya,Hilltop Acres
FARM0322,East Africa,Rice,30.448833819621676,6.430430529677662,27.248161790994438,189.96074627077826,64.36343306783363,5.951117692745046,Drip,Inorganic,143.58945454840062,2024-02-28,2024-06-10,103,4366.32,SENS0322,2024-04-27,-2.884219,36.094394,0.5245325371209106,Mild,Kenya,Hilltop Farm
FARM0323,South India,Maize,21.459073150232495,6.493499629346484,27.409277137707285,178.0961696868722,64.62247536751917,6.107657576677037,None,Organic,118.79758862309939,2024-02-24,2024-07-12,139,4016.87,SENS0323,2024-06-11,11.591384,76.244859,0.5569217053264267,Mild,Bangalore,Hilltop Farms
FARM0324,South USA,Cotton,20.840755197700688,6.269575076354991,27.658315914350634,166.72329952757624,57.163022610147465,6.873788583676564,Manual,Organic,126.69744876460385,2024-01-01,2024-04-30,120,4676.14,SENS0324,2024-01-21,33.108058,-94.769293,0.6032650057749314,Mild,Arkansas,Hilltop Field
FARM0325,South USA,Cotton,12.936217163653694,6.302819729162583,19.191810534878254,41.82842710142516,47.107717984037365,5.665333939965024,Drip,Mixed,85.91208172449228,2024-03-11,2024-07-12,123,2130.86,SENS0325,2024-05-04,32.501513,-91.82153,0.39668488658377693,Severe,Louisiana,Hilltop Fields
FARM0326,North India,Soybean,23.15551450173712,6.621050179410269,25.14020420108996,148.42895543126502,55.32250280684166,5.908961900123899,Drip,Inorganic,107.46948396539328,2024-03-02,2024-06-23,113,3465.73,SENS0326,2024-05-23,28.207972,80.869596,0.4785842744171457,Moderate,Lucknow,Hilltop Grove
FARM0327,South India,Maize,21.811178829135812,6.435527777013373,24.670076287821463,69.90134599720656,66.33190860005328,5.917437321206856,Sprinkler,Mixed,118.04651938632222,2024-02-12,2024-07-08,147,3069.43,SENS0327,2024-05-30,12.947158,76.381832,0.32295079706846946,Moderate,Bangalore,Hilltop Hollow
FARM0328,East Africa,Soybean,29.766209589002948,6.374184567987191,31.317033842647117,225.14124693811812,83.70955656964463,6.812752084956454,Manual,Mixed,146.5008393575851,2024-01-07,2024-06-02,147,5535.92,SENS0328,2024-01-29,1.850998,37.954665,0.6502236060134393,None,Kenya,Hilltop Meadow
FARM0329,North India,Rice,26.441926561979866,6.392714031453856,21.87237832354056,137.73202484378922,43.94821939707732,5.198207379552762,Manual,Inorganic,113.62645247592268,2024-03-05,2024-07-03,120,3386.8,SENS0329,2024-04-30,28.982789,76.742149,0.37538035262609,Moderate,Delhi,Hilltop Ranch
FARM0330,South India,Soybean,12.397235549217536,6.476495987415636,21.681927611240692,140.60989186074735,68.28896673714863,5.129475753550075,None,Inorganic,82.49247216267105,2024-01-26,2024-05-14,109,2686.95,SENS0330,2024-02-28,14.138006,79.707689,0.3365581733374768,Severe,Bangalore,Hilltop Ridge
FARM0331,South India,Maize,21.460731138041314,5.9471371036099,23.540125049004935,91.99419290609003,44.13927898142442,5.3042332578604015,Sprinkler,Mixed,84.21583165574127,2024-03-26,2024-07-03,99,2645.02,SENS0331,2024-04-09,15.861294,79.61111,0.43374930710630133,Severe,Hyderabad,Ironwood Acres
FARM0332,Central USA,Rice,29.56423303821698,6.280543738466692,25.039769163380228,110.28670141354559,66.6245499259045,5.957712289907926,Sprinkler,Mixed,151.61133531928286,2024-01-13,2024-06-10,149,3997.67,SENS0332,2024-02-19,35.641448,-96.801435,0.5282742435290726,Mild,Oklahoma,Ironwood Farm
FARM0333,Central USA,Cotton,15.238748105311988,6.436137110815821,18.77915129588941,108.68453760343264,54.03766666602038,3.7234125268876404,None,Inorganic,88.63202092061175,2024-03-16,2024-08-10,147,2160.32,SENS0333,2024-08-04,36.518776,-99.267962,0.2737161905706766,Severe,Oklahoma,Ironwood Farms
FARM0334,South USA,Maize,26.160662417484804,6.640272160071501,27.26678379058746,166.41052864750512,57.63033231781633,6.0667739584775715,Manual,Organic,118.7287888541698,2024-03-28,2024-07-24,118,4708.25,SENS0334,2024-04-08,31.088252,-93.393568,0.5183165902636148,Mild,Louisiana,Ironwood Field
FARM0335,Central USA,Cotton,29.34012722511199,6.82984942805527,30.281575128128992,187.20250167205475,76.65048051046941,7.029164403682084,None,Mixed,171.1611008794298,2024-03-15,2024-07-30,137,5970.39,SENS0335,2024-07-06,42.306268,-115.095392,0.6996031939477486,None,Oregon,Ironwood Fields
FARM0336,South USA,Rice,16.59799148917965,6.657437572552621,21.601569309794648,109.22425422391085,47.80932304496202,4.945195449777844,Manual,Organic,98.49176155360834,2024-03-25,2024-07-17,114,2353.79,SENS0336,2024-05-16,34.581257,-93.737998,0.2676028813533107,Severe,Arkansas,Ironwood Grove
FARM0337,East Africa,Rice,27.876531475176833,6.738284961585464,27.848743285763607,248.10077847765115,71.59094501291864,6.4055209666787825,Manual,Inorganic,146.02125245907462,2024-02-08,2024-05-09,91,5164.88,SENS0337,2024-02-27,-0.930533,37.469994,0.5821025108375495,Mild,Kenya,Ironwood Hollow
FARM0338,North India,Maize,28.29931954550488,6.594709990628562,23.868128005660644,163.48961639261165,59.648433505567105,6.194123513730915,Drip,Mixed,113.50518049580813,2024-03-16,2024-07-20,126,3744.27,SENS0338,2024-04-18,31.346436,77.587572,0.48610638441110304,Mild,Chandigarh,Ironwood Meadow
FARM0339,Central USA,Soybean,32.256194952545854,7.107550415171789,29.046579700234176,189.3177270922077,71.86244624975832,5.50633520797845,Sprinkler,Inorganic,123.06806080872278,2024-02-12,2024-06-07,116,4544.99,SENS0339,2024-03-28,47.083117,-118.250178,0.6100866495878338,Mild,Oregon,Ironwood Ranch
FARM0340,East Africa,Rice,24.348960638968645,6.470618275160243,23.421602078880326,173.77425964450205,61.24135343020061,4.913887197347515,Manual,Inorganic,119.06170682594154,2024-03-12,2024-06-16,96,4137.68,SENS0340,2024-04-26,-0.209936,37.551694,0.5411414230338947,Mild,Kenya,Ironwood Ridge
FARM0341,South USA,Cotton,25.57909577837461,6.147820264883096,20.615305434585693,148.46591711766385,48.552711786378225,4.985868416841508,Drip,Inorganic,76.14654555833602,2024-01-04,2024-05-25,142,2524.93,SENS0341,2024-01-08,32.961591,-91.135803,0.23135297865553106,Severe,Mississippi,Jackpine Acres
